{"type": "FeatureCollection", "features": [{"type": "Feature", "geometry": {"type": "Point", "coordinates": [139.7495, 35.687]}, "properties": {"city": "Tokyo", "country": "Japan", "population": 37785000.0, "capital": "primary", "iso2": "JP", "iso3": "JPN"}}, {"type": "Feature", "geometry": {"type": "Point", "coordinates": [106.8275, -6.175]}, "properties": {"city": "Jakarta", "country": "Indonesia", "population": 33756000.0, "capital": "primary", "iso2": "ID", "iso3": "IDN"}}, {"type": "Feature", "geometry": {"type": "Point", "coordinates": [77.23, 28.61]}, "properties": {"city": "Delhi", "country": "India", "population": 32226000.0, "capital": "admin", "iso2": "IN", "iso3": "IND"}}, {"type": "Feature", "geometry": {"type": "Point", "coordinates": [113.26, 23.13]}, "properties": {"city": "Guangzhou", "country": "China", "population": 26940000.0, "capital": "admin", "iso2": "CN", "iso3": "CHN"}}, {"type": "Feature", "geometry": {"type": "Point", "coordinates": [72.8775, 19.0761]}, "properties": {"city": "Mumbai", "country": "India", "population": 24973000.0, "capital": "admin", "iso2": "IN", "iso3": "IND"}}, {"type": "Feature", "geometry": {"type": "Point", "coordinates": [120.9772, 14.5958]}, "properties": {"city": "Manila", "country": "Philippines", "population": 24922000.0, "capital": "primary", "iso2": "PH", "iso3": "PHL"}}, {"type": "Feature", "geometry": {"type": "Point", "coordinates": [121.4747, 31.2286]}, "properties": {"city": "Shanghai", "country": "China", "population": 24073000.0, "capital": "admin", "iso2": "CN", "iso3": "CHN"}}, {"type": "Feature", "geometry": {"type": "Point", "coordinates": [-46.6339, -23.5504]}, "properties": {"city": "S\u00e3o Paulo", "country": "Brazil", "population": 23086000.0, "capital": "admin", "iso2": "BR", "iso3": "BRA"}}, {"type": "Feature", "geometry": {"type": "Point", "coordinates": [126.9833, 37.5667]}, "properties": {"city": "Seoul", "country": "Korea, South", "population": 23016000.0, "capital": "primary", "iso2": "KR", "iso3": "KOR"}}, {"type": "Feature", "geometry": {"type": "Point", "coordinates": [-99.1333, 19.4333]}, "properties": {"city": "Mexico City", "country": "Mexico", "population": 21804000.0, "capital": "primary", "iso2": "MX", "iso3": "MEX"}}, {"type": "Feature", "geometry": {"type": "Point", "coordinates": [88.37, 22.5675]}, "properties": {"city": "Kolk\u0101ta", "country": "India", "population": 21747000.0, "capital": "admin", "iso2": "IN", "iso3": "IND"}}, {"type": "Feature", "geometry": {"type": "Point", "coordinates": [31.2358, 30.0444]}, "properties": {"city": "Cairo", "country": "Egypt", "population": 20296000.0, "capital": "primary", "iso2": "EG", "iso3": "EGY"}}, {"type": "Feature", "geometry": {"type": "Point", "coordinates": [67.01, 24.86]}, "properties": {"city": "Karachi", "country": "Pakistan", "population": 20249000.0, "capital": "admin", "iso2": "PK", "iso3": "PAK"}}, {"type": "Feature", "geometry": {"type": "Point", "coordinates": [90.3944, 23.7289]}, "properties": {"city": "Dhaka", "country": "Bangladesh", "population": 19134000.0, "capital": "primary", "iso2": "BD", "iso3": "BGD"}}, {"type": "Feature", "geometry": {"type": "Point", "coordinates": [-73.9249, 40.6943]}, "properties": {"city": "New York", "country": "United States", "population": 18832416.0, "capital": null, "iso2": "US", "iso3": "USA"}}, {"type": "Feature", "geometry": {"type": "Point", "coordinates": [116.3975, 39.9067]}, "properties": {"city": "Beijing", "country": "China", "population": 18522000.0, "capital": "primary", "iso2": "CN", "iso3": "CHN"}}, {"type": "Feature", "geometry": {"type": "Point", "coordinates": [100.4942, 13.7525]}, "properties": {"city": "Bangkok", "country": "Thailand", "population": 18007000.0, "capital": "primary", "iso2": "TH", "iso3": "THA"}}, {"type": "Feature", "geometry": {"type": "Point", "coordinates": [114.0596, 22.5415]}, "properties": {"city": "Shenzhen", "country": "China", "population": 17619000.0, "capital": "minor", "iso2": "CN", "iso3": "CHN"}}, {"type": "Feature", "geometry": {"type": "Point", "coordinates": [37.6175, 55.7506]}, "properties": {"city": "Moscow", "country": "Russia", "population": 17332000.0, "capital": "primary", "iso2": "RU", "iso3": "RUS"}}, {"type": "Feature", "geometry": {"type": "Point", "coordinates": [-58.3814, -34.6036]}, "properties": {"city": "Buenos Aires", "country": "Argentina", "population": 16710000.0, "capital": "primary", "iso2": "AR", "iso3": "ARG"}}, {"type": "Feature", "geometry": {"type": "Point", "coordinates": [3.3841, 6.455]}, "properties": {"city": "Lagos", "country": "Nigeria", "population": 16637000.0, "capital": "minor", "iso2": "NG", "iso3": "NGA"}}, {"type": "Feature", "geometry": {"type": "Point", "coordinates": [77.5917, 12.9789]}, "properties": {"city": "Bangalore", "country": "India", "population": 15386000.0, "capital": "admin", "iso2": "IN", "iso3": "IND"}}, {"type": "Feature", "geometry": {"type": "Point", "coordinates": [106.7019, 10.7756]}, "properties": {"city": "Ho Chi Minh City", "country": "Vietnam", "population": 15136000.0, "capital": "admin", "iso2": "VN", "iso3": "VNM"}}, {"type": "Feature", "geometry": {"type": "Point", "coordinates": [135.5022, 34.6939]}, "properties": {"city": "\u014csaka", "country": "Japan", "population": 15126000.0, "capital": "admin", "iso2": "JP", "iso3": "JPN"}}, {"type": "Feature", "geometry": {"type": "Point", "coordinates": [104.0633, 30.66]}, "properties": {"city": "Chengdu", "country": "China", "population": 14645000.0, "capital": "admin", "iso2": "CN", "iso3": "CHN"}}, {"type": "Feature", "geometry": {"type": "Point", "coordinates": [28.955, 41.0136]}, "properties": {"city": "Istanbul", "country": "Turkey", "population": 14441000.0, "capital": "admin", "iso2": "TR", "iso3": "TUR"}}, {"type": "Feature", "geometry": {"type": "Point", "coordinates": [51.3897, 35.6889]}, "properties": {"city": "Tehran", "country": "Iran", "population": 14148000.0, "capital": "primary", "iso2": "IR", "iso3": "IRN"}}, {"type": "Feature", "geometry": {"type": "Point", "coordinates": [15.3119, -4.3219]}, "properties": {"city": "Kinshasa", "country": "Congo (Kinshasa)", "population": 12836000.0, "capital": "primary", "iso2": "CD", "iso3": "COD"}}, {"type": "Feature", "geometry": {"type": "Point", "coordinates": [-43.2056, -22.9111]}, "properties": {"city": "Rio de Janeiro", "country": "Brazil", "population": 12592000.0, "capital": "admin", "iso2": "BR", "iso3": "BRA"}}, {"type": "Feature", "geometry": {"type": "Point", "coordinates": [80.275, 13.0825]}, "properties": {"city": "Chennai", "country": "India", "population": 12395000.0, "capital": "admin", "iso2": "IN", "iso3": "IND"}}, {"type": "Feature", "geometry": {"type": "Point", "coordinates": [108.9422, 34.2611]}, "properties": {"city": "Xi\u2019an", "country": "China", "population": 12328000.0, "capital": "admin", "iso2": "CN", "iso3": "CHN"}}, {"type": "Feature", "geometry": {"type": "Point", "coordinates": [74.3436, 31.5497]}, "properties": {"city": "Lahore", "country": "Pakistan", "population": 12306000.0, "capital": "admin", "iso2": "PK", "iso3": "PAK"}}, {"type": "Feature", "geometry": {"type": "Point", "coordinates": [106.5504, 29.5637]}, "properties": {"city": "Chongqing", "country": "China", "population": 12135000.0, "capital": "admin", "iso2": "CN", "iso3": "CHN"}}, {"type": "Feature", "geometry": {"type": "Point", "coordinates": [-118.4068, 34.1141]}, "properties": {"city": "Los Angeles", "country": "United States", "population": 11885717.0, "capital": null, "iso2": "US", "iso3": "USA"}}, {"type": "Feature", "geometry": {"type": "Point", "coordinates": [-0.1275, 51.5072]}, "properties": {"city": "London", "country": "United Kingdom", "population": 11262000.0, "capital": "primary", "iso2": "GB", "iso3": "GBR"}}, {"type": "Feature", "geometry": {"type": "Point", "coordinates": [2.3522, 48.8567]}, "properties": {"city": "Paris", "country": "France", "population": 11060000.0, "capital": "primary", "iso2": "FR", "iso3": "FRA"}}, {"type": "Feature", "geometry": {"type": "Point", "coordinates": [118.3564, 35.1038]}, "properties": {"city": "Linyi", "country": "China", "population": 10820000.0, "capital": null, "iso2": "CN", "iso3": "CHN"}}, {"type": "Feature", "geometry": {"type": "Point", "coordinates": [113.752, 23.021]}, "properties": {"city": "Dongguan", "country": "China", "population": 10646000.0, "capital": "minor", "iso2": "CN", "iso3": "CHN"}}, {"type": "Feature", "geometry": {"type": "Point", "coordinates": [115.464, 38.874]}, "properties": {"city": "Baoding", "country": "China", "population": 10546831.0, "capital": "minor", "iso2": "CN", "iso3": "CHN"}}, {"type": "Feature", "geometry": {"type": "Point", "coordinates": [78.4747, 17.3617]}, "properties": {"city": "Hyder\u0101b\u0101d", "country": "India", "population": 10494000.0, "capital": "admin", "iso2": "IN", "iso3": "IND"}}, {"type": "Feature", "geometry": {"type": "Point", "coordinates": [117.2054, 39.1336]}, "properties": {"city": "Tianjin", "country": "China", "population": 10368000.0, "capital": "admin", "iso2": "CN", "iso3": "CHN"}}, {"type": "Feature", "geometry": {"type": "Point", "coordinates": [-77.0375, -12.06]}, "properties": {"city": "Lima", "country": "Peru", "population": 10320000.0, "capital": "primary", "iso2": "PE", "iso3": "PER"}}, {"type": "Feature", "geometry": {"type": "Point", "coordinates": [114.3046, 30.5934]}, "properties": {"city": "Wuhan", "country": "China", "population": 10251000.0, "capital": "admin", "iso2": "CN", "iso3": "CHN"}}, {"type": "Feature", "geometry": {"type": "Point", "coordinates": [112.5285, 32.9902]}, "properties": {"city": "Nanyang", "country": "China", "population": 9577771.0, "capital": null, "iso2": "CN", "iso3": "CHN"}}, {"type": "Feature", "geometry": {"type": "Point", "coordinates": [120.153, 30.267]}, "properties": {"city": "Hangzhou", "country": "China", "population": 9523000.0, "capital": "admin", "iso2": "CN", "iso3": "CHN"}}, {"type": "Feature", "geometry": {"type": "Point", "coordinates": [136.9, 35.1833]}, "properties": {"city": "Nagoya", "country": "Japan", "population": 9197000.0, "capital": "admin", "iso2": "JP", "iso3": "JPN"}}, {"type": "Feature", "geometry": {"type": "Point", "coordinates": [13.2344, -8.8383]}, "properties": {"city": "Luanda", "country": "Angola", "population": 9051000.0, "capital": "primary", "iso2": "AO", "iso3": "AGO"}}, {"type": "Feature", "geometry": {"type": "Point", "coordinates": [113.1216, 23.0214]}, "properties": {"city": "Foshan", "country": "China", "population": 9042500.0, "capital": "minor", "iso2": "CN", "iso3": "CHN"}}, {"type": "Feature", "geometry": {"type": "Point", "coordinates": [101.698, 3.1686]}, "properties": {"city": "Kuala Lumpur", "country": "Malaysia", "population": 8911000.0, "capital": "primary", "iso2": "MY", "iso3": "MYS"}}, {"type": "Feature", "geometry": {"type": "Point", "coordinates": [114.7014, 33.6367]}, "properties": {"city": "Zhoukou", "country": "China", "population": 8677800.0, "capital": "minor", "iso2": "CN", "iso3": "CHN"}}, {"type": "Feature", "geometry": {"type": "Point", "coordinates": [117.1859, 34.261]}, "properties": {"city": "Tongshan", "country": "China", "population": 8669000.0, "capital": "minor", "iso2": "CN", "iso3": "CHN"}}, {"type": "Feature", "geometry": {"type": "Point", "coordinates": [105.85, 21.0]}, "properties": {"city": "Hanoi", "country": "Vietnam", "population": 8587100.0, "capital": "primary", "iso2": "VN", "iso3": "VNM"}}, {"type": "Feature", "geometry": {"type": "Point", "coordinates": [-87.6866, 41.8375]}, "properties": {"city": "Chicago", "country": "United States", "population": 8489066.0, "capital": null, "iso2": "US", "iso3": "USA"}}, {"type": "Feature", "geometry": {"type": "Point", "coordinates": [118.7789, 32.0608]}, "properties": {"city": "Nanjing", "country": "China", "population": 8422000.0, "capital": "admin", "iso2": "CN", "iso3": "CHN"}}, {"type": "Feature", "geometry": {"type": "Point", "coordinates": [115.4796, 35.2343]}, "properties": {"city": "Heze", "country": "China", "population": 8287693.0, "capital": "minor", "iso2": "CN", "iso3": "CHN"}}, {"type": "Feature", "geometry": {"type": "Point", "coordinates": [73.8567, 18.5203]}, "properties": {"city": "Pune", "country": "India", "population": 8231000.0, "capital": null, "iso2": "IN", "iso3": "IND"}}, {"type": "Feature", "geometry": {"type": "Point", "coordinates": [116.5871, 35.4151]}, "properties": {"city": "Jining", "country": "China", "population": 8081905.0, "capital": null, "iso2": "CN", "iso3": "CHN"}}, {"type": "Feature", "geometry": {"type": "Point", "coordinates": [-74.0722, 4.7111]}, "properties": {"city": "Bogot\u00e1", "country": "Colombia", "population": 8034649.0, "capital": "primary", "iso2": "CO", "iso3": "COL"}}, {"type": "Feature", "geometry": {"type": "Point", "coordinates": [72.5714, 23.0225]}, "properties": {"city": "Ahmedabad", "country": "India", "population": 8009000.0, "capital": "minor", "iso2": "IN", "iso3": "IND"}}, {"type": "Feature", "geometry": {"type": "Point", "coordinates": [123.4281, 41.8025]}, "properties": {"city": "Shenyang", "country": "China", "population": 7964000.0, "capital": "admin", "iso2": "CN", "iso3": "CHN"}}, {"type": "Feature", "geometry": {"type": "Point", "coordinates": [39.2803, -6.8161]}, "properties": {"city": "Dar es Salaam", "country": "Tanzania", "population": 7962000.0, "capital": "admin", "iso2": "TZ", "iso3": "TZA"}}, {"type": "Feature", "geometry": {"type": "Point", "coordinates": [32.5265, 15.6031]}, "properties": {"city": "Khartoum", "country": "Sudan", "population": 7869000.0, "capital": "primary", "iso2": "SD", "iso3": "SDN"}}, {"type": "Feature", "geometry": {"type": "Point", "coordinates": [28.0456, -26.2044]}, "properties": {"city": "Johannesburg", "country": "South Africa", "population": 7860781.0, "capital": "admin", "iso2": "ZA", "iso3": "ZAF"}}, {"type": "Feature", "geometry": {"type": "Point", "coordinates": [115.814, 32.89]}, "properties": {"city": "Fuyang", "country": "China", "population": 7599913.0, "capital": null, "iso2": "CN", "iso3": "CHN"}}, {"type": "Feature", "geometry": {"type": "Point", "coordinates": [114.2, 22.3]}, "properties": {"city": "Hong Kong", "country": "Hong Kong", "population": 7450000.0, "capital": "primary", "iso2": "HK", "iso3": "HKG"}}, {"type": "Feature", "geometry": {"type": "Point", "coordinates": [114.933, 25.831]}, "properties": {"city": "Ganzhou", "country": "China", "population": 7396873.0, "capital": "minor", "iso2": "CN", "iso3": "CHN"}}, {"type": "Feature", "geometry": {"type": "Point", "coordinates": [115.656, 34.415]}, "properties": {"city": "Shangqiu", "country": "China", "population": 7325300.0, "capital": null, "iso2": "CN", "iso3": "CHN"}}, {"type": "Feature", "geometry": {"type": "Point", "coordinates": [116.8387, 38.3047]}, "properties": {"city": "Cangzhou", "country": "China", "population": 7300783.0, "capital": "minor", "iso2": "CN", "iso3": "CHN"}}, {"type": "Feature", "geometry": {"type": "Point", "coordinates": [46.71, 24.65]}, "properties": {"city": "Riyadh", "country": "Saudi Arabia", "population": 7237000.0, "capital": "primary", "iso2": "SA", "iso3": "SAU"}}, {"type": "Feature", "geometry": {"type": "Point", "coordinates": [-70.6506, -33.4372]}, "properties": {"city": "Santiago", "country": "Chile", "population": 7171000.0, "capital": "primary", "iso2": "CL", "iso3": "CHL"}}, {"type": "Feature", "geometry": {"type": "Point", "coordinates": [114.022, 33.014]}, "properties": {"city": "Zhumadian", "country": "China", "population": 7008427.0, "capital": null, "iso2": "CN", "iso3": "CHN"}}, {"type": "Feature", "geometry": {"type": "Point", "coordinates": [110.3575, 21.2701]}, "properties": {"city": "Zhanjiang", "country": "China", "population": 6981236.0, "capital": "minor", "iso2": "CN", "iso3": "CHN"}}, {"type": "Feature", "geometry": {"type": "Point", "coordinates": [96.16, 16.795]}, "properties": {"city": "Rangoon", "country": "Burma", "population": 6874000.0, "capital": "primary", "iso2": "MM", "iso3": "MMR"}}, {"type": "Feature", "geometry": {"type": "Point", "coordinates": [120.1569, 33.35]}, "properties": {"city": "Yancheng", "country": "China", "population": 6709629.0, "capital": "minor", "iso2": "CN", "iso3": "CHN"}}, {"type": "Feature", "geometry": {"type": "Point", "coordinates": [105.292, 27.284]}, "properties": {"city": "Bijie", "country": "China", "population": 6686100.0, "capital": null, "iso2": "CN", "iso3": "CHN"}}, {"type": "Feature", "geometry": {"type": "Point", "coordinates": [114.5048, 37.0717]}, "properties": {"city": "Xingtai", "country": "China", "population": 6645766.0, "capital": "minor", "iso2": "CN", "iso3": "CHN"}}, {"type": "Feature", "geometry": {"type": "Point", "coordinates": [112.572, 26.894]}, "properties": {"city": "Hengyang", "country": "China", "population": 6645243.0, "capital": null, "iso2": "CN", "iso3": "CHN"}}, {"type": "Feature", "geometry": {"type": "Point", "coordinates": [111.4679, 27.2395]}, "properties": {"city": "Shaoyang", "country": "China", "population": 6563520.0, "capital": null, "iso2": "CN", "iso3": "CHN"}}, {"type": "Feature", "geometry": {"type": "Point", "coordinates": [112.7378, -7.2458]}, "properties": {"city": "Surabaya", "country": "Indonesia", "population": 6556000.0, "capital": "admin", "iso2": "ID", "iso3": "IDN"}}, {"type": "Feature", "geometry": {"type": "Point", "coordinates": [72.84, 21.205]}, "properties": {"city": "S\u016brat", "country": "India", "population": 6538000.0, "capital": null, "iso2": "IN", "iso3": "IND"}}, {"type": "Feature", "geometry": {"type": "Point", "coordinates": [118.6757, 24.8744]}, "properties": {"city": "Quanzhou", "country": "China", "population": 6480000.0, "capital": "minor", "iso2": "CN", "iso3": "CHN"}}, {"type": "Feature", "geometry": {"type": "Point", "coordinates": [117.9431, 28.4551]}, "properties": {"city": "Shangrao", "country": "China", "population": 6435300.0, "capital": "minor", "iso2": "CN", "iso3": "CHN"}}, {"type": "Feature", "geometry": {"type": "Point", "coordinates": [107.031, 27.722]}, "properties": {"city": "Zunyi", "country": "China", "population": 6270700.0, "capital": null, "iso2": "CN", "iso3": "CHN"}}, {"type": "Feature", "geometry": {"type": "Point", "coordinates": [-3.7033, 40.4169]}, "properties": {"city": "Madrid", "country": "Spain", "population": 6211000.0, "capital": "primary", "iso2": "ES", "iso3": "ESP"}}, {"type": "Feature", "geometry": {"type": "Point", "coordinates": [44.3661, 33.3153]}, "properties": {"city": "Baghdad", "country": "Iraq", "population": 6183000.0, "capital": "primary", "iso2": "IQ", "iso3": "IRQ"}}, {"type": "Feature", "geometry": {"type": "Point", "coordinates": [110.9255, 21.6627]}, "properties": {"city": "Maoming", "country": "China", "population": 6174050.0, "capital": "minor", "iso2": "CN", "iso3": "CHN"}}, {"type": "Feature", "geometry": {"type": "Point", "coordinates": [-80.2101, 25.784]}, "properties": {"city": "Miami", "country": "United States", "population": 6113982.0, "capital": null, "iso2": "US", "iso3": "USA"}}, {"type": "Feature", "geometry": {"type": "Point", "coordinates": [114.091, 32.149]}, "properties": {"city": "Xinyang", "country": "China", "population": 6109106.0, "capital": null, "iso2": "CN", "iso3": "CHN"}}, {"type": "Feature", "geometry": {"type": "Point", "coordinates": [-95.3885, 29.786]}, "properties": {"city": "Houston", "country": "United States", "population": 6046392.0, "capital": null, "iso2": "US", "iso3": "USA"}}, {"type": "Feature", "geometry": {"type": "Point", "coordinates": [103.8, 1.3]}, "properties": {"city": "Singapore", "country": "Singapore", "population": 5983000.0, "capital": "primary", "iso2": "SG", "iso3": "SGP"}}, {"type": "Feature", "geometry": {"type": "Point", "coordinates": [81.8464, 25.4358]}, "properties": {"city": "Prayagraj", "country": "India", "population": 5954391.0, "capital": null, "iso2": "IN", "iso3": "IND"}}, {"type": "Feature", "geometry": {"type": "Point", "coordinates": [114.8724, 30.4537]}, "properties": {"city": "Huanggang", "country": "China", "population": 5882719.0, "capital": "minor", "iso2": "CN", "iso3": "CHN"}}, {"type": "Feature", "geometry": {"type": "Point", "coordinates": [121.6, 38.9]}, "properties": {"city": "Dalian", "country": "China", "population": 5871474.0, "capital": null, "iso2": "CN", "iso3": "CHN"}}, {"type": "Feature", "geometry": {"type": "Point", "coordinates": [32.85, 39.93]}, "properties": {"city": "Ankara", "country": "Turkey", "population": 5864049.0, "capital": "primary", "iso2": "TR", "iso3": "TUR"}}, {"type": "Feature", "geometry": {"type": "Point", "coordinates": [-96.7667, 32.7935]}, "properties": {"city": "Dallas", "country": "United States", "population": 5843632.0, "capital": null, "iso2": "US", "iso3": "USA"}}, {"type": "Feature", "geometry": {"type": "Point", "coordinates": [120.3827, 36.0669]}, "properties": {"city": "Qingdao", "country": "China", "population": 5818255.0, "capital": "minor", "iso2": "CN", "iso3": "CHN"}}, {"type": "Feature", "geometry": {"type": "Point", "coordinates": [110.181, 22.654]}, "properties": {"city": "Yulin", "country": "China", "population": 5796766.0, "capital": "minor", "iso2": "CN", "iso3": "CHN"}}, {"type": "Feature", "geometry": {"type": "Point", "coordinates": [115.9852, 36.4559]}, "properties": {"city": "Liaocheng", "country": "China", "population": 5789863.0, "capital": "minor", "iso2": "CN", "iso3": "CHN"}}, {"type": "Feature", "geometry": {"type": "Point", "coordinates": [9.7, 4.05]}, "properties": {"city": "Douala", "country": "Cameroon", "population": 5768400.0, "capital": "admin", "iso2": "CM", "iso3": "CMR"}}, {"type": "Feature", "geometry": {"type": "Point", "coordinates": [103.796, 25.491]}, "properties": {"city": "Qujing", "country": "China", "population": 5765775.0, "capital": null, "iso2": "CN", "iso3": "CHN"}}, {"type": "Feature", "geometry": {"type": "Point", "coordinates": [113.9268, 35.3036]}, "properties": {"city": "Nangandao", "country": "China", "population": 5708191.0, "capital": "minor", "iso2": "CN", "iso3": "CHN"}}, {"type": "Feature", "geometry": {"type": "Point", "coordinates": [38.74, 9.03]}, "properties": {"city": "Addis Ababa", "country": "Ethiopia", "population": 5704000.0, "capital": "primary", "iso2": "ET", "iso3": "ETH"}}, {"type": "Feature", "geometry": {"type": "Point", "coordinates": [-75.1339, 40.0077]}, "properties": {"city": "Philadelphia", "country": "United States", "population": 5696588.0, "capital": null, "iso2": "US", "iso3": "USA"}}, {"type": "Feature", "geometry": {"type": "Point", "coordinates": [-79.3733, 43.7417]}, "properties": {"city": "Toronto", "country": "Canada", "population": 5647656.0, "capital": "admin", "iso2": "CA", "iso3": "CAN"}}, {"type": "Feature", "geometry": {"type": "Point", "coordinates": [113.684, 34.764]}, "properties": {"city": "Zhengzhou", "country": "China", "population": 5621593.0, "capital": "admin", "iso2": "CN", "iso3": "CHN"}}, {"type": "Feature", "geometry": {"type": "Point", "coordinates": [106.1106, 30.8372]}, "properties": {"city": "Nanchong", "country": "China", "population": 5607565.0, "capital": "minor", "iso2": "CN", "iso3": "CHN"}}, {"type": "Feature", "geometry": {"type": "Point", "coordinates": [117.0207, 36.6702]}, "properties": {"city": "Jinan", "country": "China", "population": 5606374.0, "capital": "admin", "iso2": "CN", "iso3": "CHN"}}, {"type": "Feature", "geometry": {"type": "Point", "coordinates": [31.2118, 29.987]}, "properties": {"city": "Giza", "country": "Egypt", "population": 5598402.0, "capital": "admin", "iso2": "EG", "iso3": "EGY"}}, {"type": "Feature", "geometry": {"type": "Point", "coordinates": [30.3086, 59.9375]}, "properties": {"city": "Saint Petersburg", "country": "Russia", "population": 5597763.0, "capital": "admin", "iso2": "RU", "iso3": "RUS"}}, {"type": "Feature", "geometry": {"type": "Point", "coordinates": [116.3727, 23.551]}, "properties": {"city": "Jieyang", "country": "China", "population": 5577814.0, "capital": "minor", "iso2": "CN", "iso3": "CHN"}}, {"type": "Feature", "geometry": {"type": "Point", "coordinates": [116.359, 37.436]}, "properties": {"city": "Dezhou", "country": "China", "population": 5568235.0, "capital": "minor", "iso2": "CN", "iso3": "CHN"}}, {"type": "Feature", "geometry": {"type": "Point", "coordinates": [36.8172, -1.2864]}, "properties": {"city": "Nairobi", "country": "Kenya", "population": 5545000.0, "capital": "primary", "iso2": "KE", "iso3": "KEN"}}, {"type": "Feature", "geometry": {"type": "Point", "coordinates": [-103.3475, 20.6767]}, "properties": {"city": "Guadalajara", "country": "Mexico", "population": 5525000.0, "capital": "admin", "iso2": "MX", "iso3": "MEX"}}, {"type": "Feature", "geometry": {"type": "Point", "coordinates": [117.087, 36.202]}, "properties": {"city": "Tai\u2019an", "country": "China", "population": 5472217.0, "capital": null, "iso2": "CN", "iso3": "CHN"}}, {"type": "Feature", "geometry": {"type": "Point", "coordinates": [107.4678, 31.2093]}, "properties": {"city": "Dazhou", "country": "China", "population": 5385422.0, "capital": "minor", "iso2": "CN", "iso3": "CHN"}}, {"type": "Feature", "geometry": {"type": "Point", "coordinates": [-43.9419, -19.9281]}, "properties": {"city": "Belo Horizonte", "country": "Brazil", "population": 5328000.0, "capital": "admin", "iso2": "BR", "iso3": "BRA"}}, {"type": "Feature", "geometry": {"type": "Point", "coordinates": [116.964, 33.648]}, "properties": {"city": "Suzhou", "country": "China", "population": 5324476.0, "capital": null, "iso2": "CN", "iso3": "CHN"}}, {"type": "Feature", "geometry": {"type": "Point", "coordinates": [-100.3181, 25.6844]}, "properties": {"city": "Monterrey", "country": "Mexico", "population": 5324281.0, "capital": "admin", "iso2": "MX", "iso3": "MEX"}}, {"type": "Feature", "geometry": {"type": "Point", "coordinates": [111.613, 26.42]}, "properties": {"city": "Yongzhou", "country": "China", "population": 5289824.0, "capital": null, "iso2": "CN", "iso3": "CHN"}}, {"type": "Feature", "geometry": {"type": "Point", "coordinates": [111.699, 29.031]}, "properties": {"city": "Changde", "country": "China", "population": 5279102.0, "capital": "minor", "iso2": "CN", "iso3": "CHN"}}, {"type": "Feature", "geometry": {"type": "Point", "coordinates": [112.122, 32.01]}, "properties": {"city": "Xiangyang", "country": "China", "population": 5260951.0, "capital": "minor", "iso2": "CN", "iso3": "CHN"}}, {"type": "Feature", "geometry": {"type": "Point", "coordinates": [-84.422, 33.7628]}, "properties": {"city": "Atlanta", "country": "United States", "population": 5211164.0, "capital": "admin", "iso2": "US", "iso3": "USA"}}, {"type": "Feature", "geometry": {"type": "Point", "coordinates": [121.5064, 31.2347]}, "properties": {"city": "Pudong", "country": "China", "population": 5187200.0, "capital": "minor", "iso2": "CN", "iso3": "CHN"}}, {"type": "Feature", "geometry": {"type": "Point", "coordinates": [-77.0163, 38.9047]}, "properties": {"city": "Washington", "country": "United States", "population": 5146120.0, "capital": "primary", "iso2": "US", "iso3": "USA"}}, {"type": "Feature", "geometry": {"type": "Point", "coordinates": [103.717, 27.338]}, "properties": {"city": "Zhaotong", "country": "China", "population": 5092611.0, "capital": null, "iso2": "CN", "iso3": "CHN"}}, {"type": "Feature", "geometry": {"type": "Point", "coordinates": [117.647, 24.513]}, "properties": {"city": "Zhangzhou", "country": "China", "population": 5054328.0, "capital": "minor", "iso2": "CN", "iso3": "CHN"}}, {"type": "Feature", "geometry": {"type": "Point", "coordinates": [113.1309, 29.3647]}, "properties": {"city": "Yueyang", "country": "China", "population": 5051922.0, "capital": "minor", "iso2": "CN", "iso3": "CHN"}}, {"type": "Feature", "geometry": {"type": "Point", "coordinates": [144.9631, -37.8142]}, "properties": {"city": "Melbourne", "country": "Australia", "population": 5031195.0, "capital": "admin", "iso2": "AU", "iso3": "AUS"}}, {"type": "Feature", "geometry": {"type": "Point", "coordinates": [114.417, 27.816]}, "properties": {"city": "Yichun", "country": "China", "population": 5007702.0, "capital": "minor", "iso2": "CN", "iso3": "CHN"}}, {"type": "Feature", "geometry": {"type": "Point", "coordinates": [-4.0267, 5.3364]}, "properties": {"city": "Abidjan", "country": "C\u00f4te d\u2019Ivoire", "population": 4980000.0, "capital": "primary", "iso2": "CI", "iso3": "CIV"}}, {"type": "Feature", "geometry": {"type": "Point", "coordinates": [110.296, 25.275]}, "properties": {"city": "Guilin", "country": "China", "population": 4931137.0, "capital": "minor", "iso2": "CN", "iso3": "CHN"}}, {"type": "Feature", "geometry": {"type": "Point", "coordinates": [113.1926, 33.7666]}, "properties": {"city": "Pingdingshan", "country": "China", "population": 4904701.0, "capital": null, "iso2": "CN", "iso3": "CHN"}}, {"type": "Feature", "geometry": {"type": "Point", "coordinates": [29.8925, 31.1975]}, "properties": {"city": "Alexandria", "country": "Egypt", "population": 4870000.0, "capital": "admin", "iso2": "EG", "iso3": "EGY"}}, {"type": "Feature", "geometry": {"type": "Point", "coordinates": [115.7786, 33.8463]}, "properties": {"city": "Bozhou", "country": "China", "population": 4850657.0, "capital": null, "iso2": "CN", "iso3": "CHN"}}, {"type": "Feature", "geometry": {"type": "Point", "coordinates": [151.2, -33.8667]}, "properties": {"city": "Sydney", "country": "Australia", "population": 4840600.0, "capital": "admin", "iso2": "AU", "iso3": "AUS"}}, {"type": "Feature", "geometry": {"type": "Point", "coordinates": [2.1833, 41.3833]}, "properties": {"city": "Barcelona", "country": "Spain", "population": 4800000.0, "capital": "admin", "iso2": "ES", "iso3": "ESP"}}, {"type": "Feature", "geometry": {"type": "Point", "coordinates": [111.007, 35.0267]}, "properties": {"city": "Yuncheng", "country": "China", "population": 4774508.0, "capital": null, "iso2": "CN", "iso3": "CHN"}}, {"type": "Feature", "geometry": {"type": "Point", "coordinates": [18.4239, -33.9253]}, "properties": {"city": "Cape Town", "country": "South Africa", "population": 4770313.0, "capital": "primary", "iso2": "ZA", "iso3": "ZAF"}}, {"type": "Feature", "geometry": {"type": "Point", "coordinates": [112.939, 28.228]}, "properties": {"city": "Changsha", "country": "China", "population": 4766296.0, "capital": "admin", "iso2": "CN", "iso3": "CHN"}}, {"type": "Feature", "geometry": {"type": "Point", "coordinates": [118.275, 33.963]}, "properties": {"city": "Suqian", "country": "China", "population": 4719178.0, "capital": null, "iso2": "CN", "iso3": "CHN"}}, {"type": "Feature", "geometry": {"type": "Point", "coordinates": [39.1728, 21.5428]}, "properties": {"city": "Jeddah", "country": "Saudi Arabia", "population": 4697000.0, "capital": null, "iso2": "SA", "iso3": "SAU"}}, {"type": "Feature", "geometry": {"type": "Point", "coordinates": [109.471, 34.5206]}, "properties": {"city": "Weinan", "country": "China", "population": 4688744.0, "capital": "minor", "iso2": "CN", "iso3": "CHN"}}, {"type": "Feature", "geometry": {"type": "Point", "coordinates": [13.405, 52.52]}, "properties": {"city": "Berlin", "country": "Germany", "population": 4679500.0, "capital": "primary", "iso2": "DE", "iso3": "DEU"}}, {"type": "Feature", "geometry": {"type": "Point", "coordinates": [113.016, 25.77]}, "properties": {"city": "Chenzhou", "country": "China", "population": 4667134.0, "capital": "minor", "iso2": "CN", "iso3": "CHN"}}, {"type": "Feature", "geometry": {"type": "Point", "coordinates": [113.0815, 22.5789]}, "properties": {"city": "Jiangmen", "country": "China", "population": 4630300.0, "capital": "minor", "iso2": "CN", "iso3": "CHN"}}, {"type": "Feature", "geometry": {"type": "Point", "coordinates": [104.679, 31.468]}, "properties": {"city": "Mianyang", "country": "China", "population": 4613862.0, "capital": "minor", "iso2": "CN", "iso3": "CHN"}}, {"type": "Feature", "geometry": {"type": "Point", "coordinates": [115.954, 29.661]}, "properties": {"city": "Jiujiang", "country": "China", "population": 4600276.0, "capital": "minor", "iso2": "CN", "iso3": "CHN"}}, {"type": "Feature", "geometry": {"type": "Point", "coordinates": [110.0016, 27.5698]}, "properties": {"city": "Huaihua", "country": "China", "population": 4587594.0, "capital": null, "iso2": "CN", "iso3": "CHN"}}, {"type": "Feature", "geometry": {"type": "Point", "coordinates": [114.345, 34.795]}, "properties": {"city": "Huanglongsi", "country": "China", "population": 4564900.0, "capital": null, "iso2": "CN", "iso3": "CHN"}}, {"type": "Feature", "geometry": {"type": "Point", "coordinates": [119.9229, 32.4567]}, "properties": {"city": "Taizhou", "country": "China", "population": 4512762.0, "capital": "minor", "iso2": "CN", "iso3": "CHN"}}, {"type": "Feature", "geometry": {"type": "Point", "coordinates": [86.25, 26.4]}, "properties": {"city": "Bel\u0101hi", "country": "India", "population": 4487379.0, "capital": null, "iso2": "IN", "iso3": "IND"}}, {"type": "Feature", "geometry": {"type": "Point", "coordinates": [104.643, 28.752]}, "properties": {"city": "Yibin", "country": "China", "population": 4471896.0, "capital": "minor", "iso2": "CN", "iso3": "CHN"}}, {"type": "Feature", "geometry": {"type": "Point", "coordinates": [114.9668, 27.0912]}, "properties": {"city": "Ji\u2019an", "country": "China", "population": 4469176.0, "capital": "minor", "iso2": "CN", "iso3": "CHN"}}, {"type": "Feature", "geometry": {"type": "Point", "coordinates": [119.4128, 32.3944]}, "properties": {"city": "Yangzhou", "country": "China", "population": 4459760.0, "capital": null, "iso2": "CN", "iso3": "CHN"}}, {"type": "Feature", "geometry": {"type": "Point", "coordinates": [102.7094, 25.0464]}, "properties": {"city": "Kunming", "country": "China", "population": 4422686.0, "capital": "admin", "iso2": "CN", "iso3": "CHN"}}, {"type": "Feature", "geometry": {"type": "Point", "coordinates": [125.326, 43.897]}, "properties": {"city": "Changchun", "country": "China", "population": 4408154.0, "capital": "admin", "iso2": "CN", "iso3": "CHN"}}, {"type": "Feature", "geometry": {"type": "Point", "coordinates": [116.52, 31.736]}, "properties": {"city": "Lu\u2019an", "country": "China", "population": 4393699.0, "capital": "minor", "iso2": "CN", "iso3": "CHN"}}, {"type": "Feature", "geometry": {"type": "Point", "coordinates": [119.2214, 34.5966]}, "properties": {"city": "Xinpu", "country": "China", "population": 4393482.0, "capital": "minor", "iso2": "CN", "iso3": "CHN"}}, {"type": "Feature", "geometry": {"type": "Point", "coordinates": [116.6835, 39.5383]}, "properties": {"city": "Langfang", "country": "China", "population": 4358839.0, "capital": "minor", "iso2": "CN", "iso3": "CHN"}}, {"type": "Feature", "geometry": {"type": "Point", "coordinates": [-71.0852, 42.3188]}, "properties": {"city": "Boston", "country": "United States", "population": 4355184.0, "capital": "admin", "iso2": "US", "iso3": "USA"}}, {"type": "Feature", "geometry": {"type": "Point", "coordinates": [87.6125, 43.8225]}, "properties": {"city": "\u00dcr\u00fcmqi", "country": "China", "population": 4335017.0, "capital": "admin", "iso2": "CN", "iso3": "CHN"}}, {"type": "Feature", "geometry": {"type": "Point", "coordinates": [120.6194, 31.3]}, "properties": {"city": "Suzhou", "country": "China", "population": 4330000.0, "capital": "minor", "iso2": "CN", "iso3": "CHN"}}, {"type": "Feature", "geometry": {"type": "Point", "coordinates": [109.599, 23.112]}, "properties": {"city": "Guigang", "country": "China", "population": 4316262.0, "capital": "minor", "iso2": "CN", "iso3": "CHN"}}, {"type": "Feature", "geometry": {"type": "Point", "coordinates": [116.682, 23.354]}, "properties": {"city": "Shantou", "country": "China", "population": 4312192.0, "capital": "minor", "iso2": "CN", "iso3": "CHN"}}, {"type": "Feature", "geometry": {"type": "Point", "coordinates": [113.852, 34.037]}, "properties": {"city": "Jiangguanchi", "country": "China", "population": 4307488.0, "capital": "minor", "iso2": "CN", "iso3": "CHN"}}, {"type": "Feature", "geometry": {"type": "Point", "coordinates": [69.1783, 34.5253]}, "properties": {"city": "Kabul", "country": "Afghanistan", "population": 4273156.0, "capital": "primary", "iso2": "AF", "iso3": "AFG"}}, {"type": "Feature", "geometry": {"type": "Point", "coordinates": [113.957, 30.918]}, "properties": {"city": "Xiaoganzhan", "country": "China", "population": 4270371.0, "capital": null, "iso2": "CN", "iso3": "CHN"}}, {"type": "Feature", "geometry": {"type": "Point", "coordinates": [-7.9922, 12.6458]}, "properties": {"city": "Bamako", "country": "Mali", "population": 4227569.0, "capital": "primary", "iso2": "ML", "iso3": "MLI"}}, {"type": "Feature", "geometry": {"type": "Point", "coordinates": [8.5167, 12.0]}, "properties": {"city": "Kano", "country": "Nigeria", "population": 4224966.0, "capital": "admin", "iso2": "NG", "iso3": "NGA"}}, {"type": "Feature", "geometry": {"type": "Point", "coordinates": [105.442, 28.871]}, "properties": {"city": "Luzhou", "country": "China", "population": 4218427.0, "capital": "minor", "iso2": "CN", "iso3": "CHN"}}, {"type": "Feature", "geometry": {"type": "Point", "coordinates": [117.2273, 31.8206]}, "properties": {"city": "Hefei", "country": "China", "population": 4216940.0, "capital": "admin", "iso2": "CN", "iso3": "CHN"}}, {"type": "Feature", "geometry": {"type": "Point", "coordinates": [115.669, 37.739]}, "properties": {"city": "Hengshui", "country": "China", "population": 4212933.0, "capital": "minor", "iso2": "CN", "iso3": "CHN"}}, {"type": "Feature", "geometry": {"type": "Point", "coordinates": [-38.5275, -3.7275]}, "properties": {"city": "Fortaleza", "country": "Brazil", "population": 4167996.0, "capital": "admin", "iso2": "BR", "iso3": "BRA"}}, {"type": "Feature", "geometry": {"type": "Point", "coordinates": [117.1153, 30.5318]}, "properties": {"city": "Anqing", "country": "China", "population": 4165284.0, "capital": "minor", "iso2": "CN", "iso3": "CHN"}}, {"type": "Feature", "geometry": {"type": "Point", "coordinates": [114.886, 40.769]}, "properties": {"city": "Zhangjiakou", "country": "China", "population": 4118908.0, "capital": "minor", "iso2": "CN", "iso3": "CHN"}}, {"type": "Feature", "geometry": {"type": "Point", "coordinates": [112.4667, 23.05]}, "properties": {"city": "Zhaoqing", "country": "China", "population": 4113594.0, "capital": "minor", "iso2": "CN", "iso3": "CHN"}}, {"type": "Feature", "geometry": {"type": "Point", "coordinates": [114.51, 38.0425]}, "properties": {"city": "Shijiazhuang", "country": "China", "population": 4098243.0, "capital": "admin", "iso2": "CN", "iso3": "CHN"}}, {"type": "Feature", "geometry": {"type": "Point", "coordinates": [121.6245, 29.8603]}, "properties": {"city": "Ningbo", "country": "China", "population": 4087523.0, "capital": "minor", "iso2": "CN", "iso3": "CHN"}}, {"type": "Feature", "geometry": {"type": "Point", "coordinates": [123.9182, 47.3549]}, "properties": {"city": "Qiqihar", "country": "China", "population": 4067489.0, "capital": "minor", "iso2": "CN", "iso3": "CHN"}}, {"type": "Feature", "geometry": {"type": "Point", "coordinates": [-112.0892, 33.5722]}, "properties": {"city": "Phoenix", "country": "United States", "population": 4065338.0, "capital": "admin", "iso2": "US", "iso3": "USA"}}, {"type": "Feature", "geometry": {"type": "Point", "coordinates": [109.4278, 24.3278]}, "properties": {"city": "Liuzhou", "country": "China", "population": 4041700.0, "capital": "minor", "iso2": "CN", "iso3": "CHN"}}, {"type": "Feature", "geometry": {"type": "Point", "coordinates": [118.8825, 42.255]}, "properties": {"city": "Chifeng", "country": "China", "population": 4035967.0, "capital": "minor", "iso2": "CN", "iso3": "CHN"}}, {"type": "Feature", "geometry": {"type": "Point", "coordinates": [111.287, 30.692]}, "properties": {"city": "Xiaoxita", "country": "China", "population": 4017607.0, "capital": "minor", "iso2": "CN", "iso3": "CHN"}}, {"type": "Feature", "geometry": {"type": "Point", "coordinates": [35.9328, 31.9497]}, "properties": {"city": "Amman", "country": "Jordan", "population": 4007526.0, "capital": "primary", "iso2": "JO", "iso3": "JOR"}}, {"type": "Feature", "geometry": {"type": "Point", "coordinates": [111.519, 36.088]}, "properties": {"city": "Linfen", "country": "China", "population": 3976481.0, "capital": null, "iso2": "CN", "iso3": "CHN"}}, {"type": "Feature", "geometry": {"type": "Point", "coordinates": [108.7088, 34.3299]}, "properties": {"city": "Xianyang", "country": "China", "population": 3959842.0, "capital": "minor", "iso2": "CN", "iso3": "CHN"}}, {"type": "Feature", "geometry": {"type": "Point", "coordinates": [118.333, 32.256]}, "properties": {"city": "Chuzhou", "country": "China", "population": 3937868.0, "capital": null, "iso2": "CN", "iso3": "CHN"}}, {"type": "Feature", "geometry": {"type": "Point", "coordinates": [-1.625, 6.7]}, "properties": {"city": "Kumasi", "country": "Ghana", "population": 3903480.0, "capital": "admin", "iso2": "GH", "iso3": "GHA"}}, {"type": "Feature", "geometry": {"type": "Point", "coordinates": [113.133, 27.829]}, "properties": {"city": "Zhuzhou", "country": "China", "population": 3902738.0, "capital": "minor", "iso2": "CN", "iso3": "CHN"}}, {"type": "Feature", "geometry": {"type": "Point", "coordinates": [112.5497, 37.8704]}, "properties": {"city": "Taiyuan", "country": "China", "population": 3875053.0, "capital": "admin", "iso2": "CN", "iso3": "CHN"}}, {"type": "Feature", "geometry": {"type": "Point", "coordinates": [113.056, 23.682]}, "properties": {"city": "Qingyuan", "country": "China", "population": 3874000.0, "capital": "minor", "iso2": "CN", "iso3": "CHN"}}, {"type": "Feature", "geometry": {"type": "Point", "coordinates": [116.122, 24.289]}, "properties": {"city": "Meizhou", "country": "China", "population": 3873239.0, "capital": "minor", "iso2": "CN", "iso3": "CHN"}}, {"type": "Feature", "geometry": {"type": "Point", "coordinates": [112.356, 28.5549]}, "properties": {"city": "Yiyang", "country": "China", "population": 3851564.0, "capital": "minor", "iso2": "CN", "iso3": "CHN"}}, {"type": "Feature", "geometry": {"type": "Point", "coordinates": [108.3275, 22.8167]}, "properties": {"city": "Nanning", "country": "China", "population": 3837978.0, "capital": "admin", "iso2": "CN", "iso3": "CHN"}}, {"type": "Feature", "geometry": {"type": "Point", "coordinates": [126.6409, 45.7576]}, "properties": {"city": "Harbin", "country": "China", "population": 3830000.0, "capital": "admin", "iso2": "CN", "iso3": "CHN"}}, {"type": "Feature", "geometry": {"type": "Point", "coordinates": [111.9944, 27.6998]}, "properties": {"city": "Loudi", "country": "China", "population": 3826996.0, "capital": null, "iso2": "CN", "iso3": "CHN"}}, {"type": "Feature", "geometry": {"type": "Point", "coordinates": [7.4833, 9.0667]}, "properties": {"city": "Abuja", "country": "Nigeria", "population": 3770000.0, "capital": "primary", "iso2": "NG", "iso3": "NGA"}}, {"type": "Feature", "geometry": {"type": "Point", "coordinates": [139.6381, 35.4442]}, "properties": {"city": "Yokohama", "country": "Japan", "population": 3757630.0, "capital": "admin", "iso2": "JP", "iso3": "JPN"}}, {"type": "Feature", "geometry": {"type": "Point", "coordinates": [126.969, 46.654]}, "properties": {"city": "Suihua", "country": "China", "population": 3756167.0, "capital": "minor", "iso2": "CN", "iso3": "CHN"}}, {"type": "Feature", "geometry": {"type": "Point", "coordinates": [117.971, 37.383]}, "properties": {"city": "Binzhou", "country": "China", "population": 3748474.0, "capital": null, "iso2": "CN", "iso3": "CHN"}}, {"type": "Feature", "geometry": {"type": "Point", "coordinates": [117.3238, 34.8109]}, "properties": {"city": "Zaozhuang", "country": "China", "population": 3729140.0, "capital": null, "iso2": "CN", "iso3": "CHN"}}, {"type": "Feature", "geometry": {"type": "Point", "coordinates": [-83.1024, 42.3834]}, "properties": {"city": "Detroit", "country": "United States", "population": 3716929.0, "capital": null, "iso2": "US", "iso3": "USA"}}, {"type": "Feature", "geometry": {"type": "Point", "coordinates": [118.0889, 24.4796]}, "properties": {"city": "Xiamen", "country": "China", "population": 3707090.0, "capital": "minor", "iso2": "CN", "iso3": "CHN"}}, {"type": "Feature", "geometry": {"type": "Point", "coordinates": [59.5433, 36.3264]}, "properties": {"city": "Mashhad", "country": "Iran", "population": 3700000.0, "capital": "admin", "iso2": "IR", "iso3": "IRN"}}, {"type": "Feature", "geometry": {"type": "Point", "coordinates": [-73.5617, 45.5089]}, "properties": {"city": "Montr\u00e9al", "country": "Canada", "population": 3675219.0, "capital": null, "iso2": "CA", "iso3": "CAN"}}, {"type": "Feature", "geometry": {"type": "Point", "coordinates": [119.2964, 26.0743]}, "properties": {"city": "Fuzhou", "country": "China", "population": 3671192.0, "capital": "admin", "iso2": "CN", "iso3": "CHN"}}, {"type": "Feature", "geometry": {"type": "Point", "coordinates": [118.4331, 31.3526]}, "properties": {"city": "Wuhu", "country": "China", "population": 3644420.0, "capital": "minor", "iso2": "CN", "iso3": "CHN"}}, {"type": "Feature", "geometry": {"type": "Point", "coordinates": [98.6739, 3.5894]}, "properties": {"city": "Medan", "country": "Indonesia", "population": 3632000.0, "capital": "admin", "iso2": "ID", "iso3": "IDN"}}, {"type": "Feature", "geometry": {"type": "Point", "coordinates": [109.7341, 38.2858]}, "properties": {"city": "Yulinshi", "country": "China", "population": 3624750.0, "capital": null, "iso2": "CN", "iso3": "CHN"}}, {"type": "Feature", "geometry": {"type": "Point", "coordinates": [116.358, 27.949]}, "properties": {"city": "Fuzhou", "country": "China", "population": 3614866.0, "capital": null, "iso2": "CN", "iso3": "CHN"}}, {"type": "Feature", "geometry": {"type": "Point", "coordinates": [120.6993, 27.9938]}, "properties": {"city": "Wenzhou", "country": "China", "population": 3604446.0, "capital": null, "iso2": "CN", "iso3": "CHN"}}, {"type": "Feature", "geometry": {"type": "Point", "coordinates": [119.974, 31.811]}, "properties": {"city": "Changzhou", "country": "China", "population": 3601079.0, "capital": "minor", "iso2": "CN", "iso3": "CHN"}}, {"type": "Feature", "geometry": {"type": "Point", "coordinates": [115.0292, 35.7627]}, "properties": {"city": "Puyang", "country": "China", "population": 3598740.0, "capital": "minor", "iso2": "CN", "iso3": "CHN"}}, {"type": "Feature", "geometry": {"type": "Point", "coordinates": [115.858, 28.683]}, "properties": {"city": "Nanchang", "country": "China", "population": 3576547.0, "capital": "admin", "iso2": "CN", "iso3": "CHN"}}, {"type": "Feature", "geometry": {"type": "Point", "coordinates": [106.619, 23.903]}, "properties": {"city": "Baicheng", "country": "China", "population": 3571505.0, "capital": "minor", "iso2": "CN", "iso3": "CHN"}}, {"type": "Feature", "geometry": {"type": "Point", "coordinates": [-122.3244, 47.6211]}, "properties": {"city": "Seattle", "country": "United States", "population": 3555253.0, "capital": null, "iso2": "US", "iso3": "USA"}}, {"type": "Feature", "geometry": {"type": "Point", "coordinates": [3.9167, 7.3964]}, "properties": {"city": "Ibadan", "country": "Nigeria", "population": 3552000.0, "capital": "admin", "iso2": "NG", "iso3": "NGA"}}, {"type": "Feature", "geometry": {"type": "Point", "coordinates": [113.2419, 35.2157]}, "properties": {"city": "Jiaozuo", "country": "China", "population": 3521078.0, "capital": null, "iso2": "CN", "iso3": "CHN"}}, {"type": "Feature", "geometry": {"type": "Point", "coordinates": [76.9714, 11.0125]}, "properties": {"city": "N\u0101damp\u0101laiyam", "country": "India", "population": 3458045.0, "capital": null, "iso2": "IN", "iso3": "IND"}}, {"type": "Feature", "geometry": {"type": "Point", "coordinates": [104.398, 31.127]}, "properties": {"city": "Deyang", "country": "China", "population": 3456161.0, "capital": "minor", "iso2": "CN", "iso3": "CHN"}}, {"type": "Feature", "geometry": {"type": "Point", "coordinates": [129.075, 35.18]}, "properties": {"city": "Busan", "country": "Korea, South", "population": 3453198.0, "capital": "admin", "iso2": "KR", "iso3": "KOR"}}, {"type": "Feature", "geometry": {"type": "Point", "coordinates": [108.085, 24.693]}, "properties": {"city": "Hechi", "country": "China", "population": 3417945.0, "capital": "minor", "iso2": "CN", "iso3": "CHN"}}, {"type": "Feature", "geometry": {"type": "Point", "coordinates": [118.1739, 39.6294]}, "properties": {"city": "Tangshan", "country": "China", "population": 3399231.0, "capital": "minor", "iso2": "CN", "iso3": "CHN"}}, {"type": "Feature", "geometry": {"type": "Point", "coordinates": [80.95, 26.85]}, "properties": {"city": "Lucknow", "country": "India", "population": 3382000.0, "capital": "admin", "iso2": "IN", "iso3": "IND"}}, {"type": "Feature", "geometry": {"type": "Point", "coordinates": [-122.4449, 37.7558]}, "properties": {"city": "San Francisco", "country": "United States", "population": 3364862.0, "capital": null, "iso2": "US", "iso3": "USA"}}, {"type": "Feature", "geometry": {"type": "Point", "coordinates": [-1.4051, 6.6919]}, "properties": {"city": "Boankra", "country": "Ghana", "population": 3348000.0, "capital": null, "iso2": "GH", "iso3": "GHA"}}, {"type": "Feature", "geometry": {"type": "Point", "coordinates": [55.2972, 25.2631]}, "properties": {"city": "Dubai", "country": "United Arab Emirates", "population": 3331420.0, "capital": "admin", "iso2": "AE", "iso3": "ARE"}}, {"type": "Feature", "geometry": {"type": "Point", "coordinates": [122.994, 41.108]}, "properties": {"city": "Anshan", "country": "China", "population": 3325372.0, "capital": null, "iso2": "CN", "iso3": "CHN"}}, {"type": "Feature", "geometry": {"type": "Point", "coordinates": [107.1751, 34.3609]}, "properties": {"city": "Guozhen", "country": "China", "population": 3321853.0, "capital": "minor", "iso2": "CN", "iso3": "CHN"}}, {"type": "Feature", "geometry": {"type": "Point", "coordinates": [107.238, 34.363]}, "properties": {"city": "Baojishi", "country": "China", "population": 3321853.0, "capital": null, "iso2": "CN", "iso3": "CHN"}}, {"type": "Feature", "geometry": {"type": "Point", "coordinates": [108.654, 21.981]}, "properties": {"city": "Qinzhou", "country": "China", "population": 3302238.0, "capital": "minor", "iso2": "CN", "iso3": "CHN"}}, {"type": "Feature", "geometry": {"type": "Point", "coordinates": [106.63, 26.647]}, "properties": {"city": "Guiyang", "country": "China", "population": 3299724.0, "capital": "admin", "iso2": "CN", "iso3": "CHN"}}, {"type": "Feature", "geometry": {"type": "Point", "coordinates": [120.2833, 31.5667]}, "properties": {"city": "Wuxi", "country": "China", "population": 3245179.0, "capital": "minor", "iso2": "CN", "iso3": "CHN"}}, {"type": "Feature", "geometry": {"type": "Point", "coordinates": [76.21, 10.52]}, "properties": {"city": "Kannankulam", "country": "India", "population": 3243170.0, "capital": null, "iso2": "IN", "iso3": "IND"}}, {"type": "Feature", "geometry": {"type": "Point", "coordinates": [-66.9036, 10.4806]}, "properties": {"city": "Caracas", "country": "Venezuela", "population": 3242000.0, "capital": "primary", "iso2": "VE", "iso3": "VEN"}}, {"type": "Feature", "geometry": {"type": "Point", "coordinates": [73.75, 32.5833]}, "properties": {"city": "Kotla Qasim Khan", "country": "Pakistan", "population": 3219375.0, "capital": null, "iso2": "PK", "iso3": "PAK"}}, {"type": "Feature", "geometry": {"type": "Point", "coordinates": [-7.5833, 33.5333]}, "properties": {"city": "Casablanca", "country": "Morocco", "population": 3215935.0, "capital": "admin", "iso2": "MA", "iso3": "MAR"}}, {"type": "Feature", "geometry": {"type": "Point", "coordinates": [107.0232, 33.0664]}, "properties": {"city": "Hanzhong", "country": "China", "population": 3211462.0, "capital": null, "iso2": "CN", "iso3": "CHN"}}, {"type": "Feature", "geometry": {"type": "Point", "coordinates": [110.7987, 32.629]}, "properties": {"city": "Shiyan", "country": "China", "population": 3209004.0, "capital": "minor", "iso2": "CN", "iso3": "CHN"}}, {"type": "Feature", "geometry": {"type": "Point", "coordinates": [106.6326, 30.4564]}, "properties": {"city": "Guang\u2019an", "country": "China", "population": 3205476.0, "capital": "minor", "iso2": "CN", "iso3": "CHN"}}, {"type": "Feature", "geometry": {"type": "Point", "coordinates": [73.0911, 31.4167]}, "properties": {"city": "Faisalabad", "country": "Pakistan", "population": 3203846.0, "capital": "minor", "iso2": "PK", "iso3": "PAK"}}, {"type": "Feature", "geometry": {"type": "Point", "coordinates": [113.117, 36.195]}, "properties": {"city": "Changzhi", "country": "China", "population": 3180884.0, "capital": "minor", "iso2": "CN", "iso3": "CHN"}}, {"type": "Feature", "geometry": {"type": "Point", "coordinates": [109.1895, 27.7316]}, "properties": {"city": "Tongren", "country": "China", "population": 3168800.0, "capital": null, "iso2": "CN", "iso3": "CHN"}}, {"type": "Feature", "geometry": {"type": "Point", "coordinates": [117.389, 32.917]}, "properties": {"city": "Bengbu", "country": "China", "population": 3164467.0, "capital": null, "iso2": "CN", "iso3": "CHN"}}, {"type": "Feature", "geometry": {"type": "Point", "coordinates": [103.766, 29.552]}, "properties": {"city": "Leshan", "country": "China", "population": 3160168.0, "capital": null, "iso2": "CN", "iso3": "CHN"}}, {"type": "Feature", "geometry": {"type": "Point", "coordinates": [-63.1975, -17.7892]}, "properties": {"city": "Santa Cruz de la Sierra", "country": "Bolivia", "population": 3151676.0, "capital": null, "iso2": "BO", "iso3": "BOL"}}, {"type": "Feature", "geometry": {"type": "Point", "coordinates": [105.058, 29.5802]}, "properties": {"city": "Neijiang", "country": "China", "population": 3140678.0, "capital": "minor", "iso2": "CN", "iso3": "CHN"}}, {"type": "Feature", "geometry": {"type": "Point", "coordinates": [119.424, 32.188]}, "properties": {"city": "Zhenjiang", "country": "China", "population": 3113384.0, "capital": "minor", "iso2": "CN", "iso3": "CHN"}}, {"type": "Feature", "geometry": {"type": "Point", "coordinates": [119.5202, 39.8882]}, "properties": {"city": "Qinhuangdao", "country": "China", "population": 3107400.0, "capital": "minor", "iso2": "CN", "iso3": "CHN"}}, {"type": "Feature", "geometry": {"type": "Point", "coordinates": [29.05, 40.1833]}, "properties": {"city": "Bursa", "country": "Turkey", "population": 3101833.0, "capital": "admin", "iso2": "TR", "iso3": "TUR"}}, {"type": "Feature", "geometry": {"type": "Point", "coordinates": [69.2797, 41.3111]}, "properties": {"city": "Tashkent", "country": "Uzbekistan", "population": 3095498.0, "capital": "primary", "iso2": "UZ", "iso3": "UZB"}}, {"type": "Feature", "geometry": {"type": "Point", "coordinates": [-79.8875, -2.19]}, "properties": {"city": "Guayaquil", "country": "Ecuador", "population": 3094420.0, "capital": "admin", "iso2": "EC", "iso3": "ECU"}}, {"type": "Feature", "geometry": {"type": "Point", "coordinates": [75.8, 26.9]}, "properties": {"city": "Jaipur", "country": "India", "population": 3073350.0, "capital": "admin", "iso2": "IN", "iso3": "IND"}}, {"type": "Feature", "geometry": {"type": "Point", "coordinates": [103.8268, 36.0606]}, "properties": {"city": "Lanzhou", "country": "China", "population": 3067141.0, "capital": "admin", "iso2": "CN", "iso3": "CHN"}}, {"type": "Feature", "geometry": {"type": "Point", "coordinates": [-1.5275, 12.3686]}, "properties": {"city": "Ouagadougou", "country": "Burkina Faso", "population": 3063271.0, "capital": "primary", "iso2": "BF", "iso3": "BFA"}}, {"type": "Feature", "geometry": {"type": "Point", "coordinates": [23.7281, 37.9842]}, "properties": {"city": "Athens", "country": "Greece", "population": 3059764.0, "capital": "primary", "iso2": "GR", "iso3": "GRC"}}, {"type": "Feature", "geometry": {"type": "Point", "coordinates": [-117.1222, 32.8313]}, "properties": {"city": "San Diego", "country": "United States", "population": 3057778.0, "capital": null, "iso2": "US", "iso3": "USA"}}, {"type": "Feature", "geometry": {"type": "Point", "coordinates": [-90.5133, 14.6417]}, "properties": {"city": "Guatemala City", "country": "Guatemala", "population": 3014000.0, "capital": "primary", "iso2": "GT", "iso3": "GTM"}}, {"type": "Feature", "geometry": {"type": "Point", "coordinates": [47.9783, 29.3697]}, "properties": {"city": "Kuwait City", "country": "Kuwait", "population": 2989000.0, "capital": "primary", "iso2": "KW", "iso3": "KWT"}}, {"type": "Feature", "geometry": {"type": "Point", "coordinates": [105.7248, 34.5815]}, "properties": {"city": "Qincheng", "country": "China", "population": 2984659.0, "capital": "minor", "iso2": "CN", "iso3": "CHN"}}, {"type": "Feature", "geometry": {"type": "Point", "coordinates": [27.14, 38.42]}, "properties": {"city": "\u0130zmir", "country": "Turkey", "population": 2965900.0, "capital": "admin", "iso2": "TR", "iso3": "TUR"}}, {"type": "Feature", "geometry": {"type": "Point", "coordinates": [121.0475, 14.65]}, "properties": {"city": "Quezon City", "country": "Philippines", "population": 2960048.0, "capital": "admin", "iso2": "PH", "iso3": "PHL"}}, {"type": "Feature", "geometry": {"type": "Point", "coordinates": [30.5233, 50.45]}, "properties": {"city": "Kyiv", "country": "Ukraine", "population": 2952301.0, "capital": "primary", "iso2": "UA", "iso3": "UKR"}}, {"type": "Feature", "geometry": {"type": "Point", "coordinates": [76.651, 10.775]}, "properties": {"city": "Kott\u0101rassh\u0113ri", "country": "India", "population": 2952254.0, "capital": null, "iso2": "IN", "iso3": "IND"}}, {"type": "Feature", "geometry": {"type": "Point", "coordinates": [103.8484, 30.0771]}, "properties": {"city": "Meishan", "country": "China", "population": 2950545.0, "capital": null, "iso2": "CN", "iso3": "CHN"}}, {"type": "Feature", "geometry": {"type": "Point", "coordinates": [126.6333, 37.4833]}, "properties": {"city": "Incheon", "country": "Korea, South", "population": 2936117.0, "capital": "admin", "iso2": "KR", "iso3": "KOR"}}, {"type": "Feature", "geometry": {"type": "Point", "coordinates": [119.5477, 26.6662]}, "properties": {"city": "Ningde", "country": "China", "population": 2910000.0, "capital": "minor", "iso2": "CN", "iso3": "CHN"}}, {"type": "Feature", "geometry": {"type": "Point", "coordinates": [113.3925, 22.517]}, "properties": {"city": "Zhongshan", "country": "China", "population": 2909633.0, "capital": "minor", "iso2": "CN", "iso3": "CHN"}}, {"type": "Feature", "geometry": {"type": "Point", "coordinates": [-93.2678, 44.9635]}, "properties": {"city": "Minneapolis", "country": "United States", "population": 2906807.0, "capital": null, "iso2": "US", "iso3": "USA"}}, {"type": "Feature", "geometry": {"type": "Point", "coordinates": [-82.4447, 27.9945]}, "properties": {"city": "Tampa", "country": "United States", "population": 2906035.0, "capital": null, "iso2": "US", "iso3": "USA"}}, {"type": "Feature", "geometry": {"type": "Point", "coordinates": [119.0078, 25.4526]}, "properties": {"city": "Putian", "country": "China", "population": 2900000.0, "capital": "minor", "iso2": "CN", "iso3": "CHN"}}, {"type": "Feature", "geometry": {"type": "Point", "coordinates": [23.6, -6.15]}, "properties": {"city": "Mbuji-Mayi", "country": "Congo (Kinshasa)", "population": 2892000.0, "capital": "admin", "iso2": "CD", "iso3": "COD"}}, {"type": "Feature", "geometry": {"type": "Point", "coordinates": [122.243, 43.654]}, "properties": {"city": "Tongliao", "country": "China", "population": 2873168.0, "capital": "minor", "iso2": "CN", "iso3": "CHN"}}, {"type": "Feature", "geometry": {"type": "Point", "coordinates": [120.453, 41.571]}, "properties": {"city": "Chaoyang", "country": "China", "population": 2872857.0, "capital": null, "iso2": "CN", "iso3": "CHN"}}, {"type": "Feature", "geometry": {"type": "Point", "coordinates": [111.749, 40.842]}, "properties": {"city": "Hohhot", "country": "China", "population": 2866615.0, "capital": "admin", "iso2": "CN", "iso3": "CHN"}}, {"type": "Feature", "geometry": {"type": "Point", "coordinates": [125.7475, 39.0167]}, "properties": {"city": "Pyongyang", "country": "Korea, North", "population": 2863000.0, "capital": "primary", "iso2": "KP", "iso3": "PRK"}}, {"type": "Feature", "geometry": {"type": "Point", "coordinates": [113.597, 24.811]}, "properties": {"city": "Shaoguan", "country": "China", "population": 2855131.0, "capital": "minor", "iso2": "CN", "iso3": "CHN"}}, {"type": "Feature", "geometry": {"type": "Point", "coordinates": [120.6794, 24.1439]}, "properties": {"city": "Taichung", "country": "Taiwan", "population": 2850285.0, "capital": "admin", "iso2": "TW", "iso3": "TWN"}}, {"type": "Feature", "geometry": {"type": "Point", "coordinates": [-76.5222, 3.4206]}, "properties": {"city": "Cali", "country": "Colombia", "population": 2838333.0, "capital": "admin", "iso2": "CO", "iso3": "COL"}}, {"type": "Feature", "geometry": {"type": "Point", "coordinates": [114.7002, 23.7443]}, "properties": {"city": "Heyuan", "country": "China", "population": 2837686.0, "capital": "minor", "iso2": "CN", "iso3": "CHN"}}, {"type": "Feature", "geometry": {"type": "Point", "coordinates": [111.279, 23.4767]}, "properties": {"city": "Wuzhou", "country": "China", "population": 2820977.0, "capital": "minor", "iso2": "CN", "iso3": "CHN"}}, {"type": "Feature", "geometry": {"type": "Point", "coordinates": [28.1881, -25.7461]}, "properties": {"city": "Pretoria", "country": "South Africa", "population": 2818100.0, "capital": "primary", "iso2": "ZA", "iso3": "ZAF"}}, {"type": "Feature", "geometry": {"type": "Point", "coordinates": [105.593, 30.533]}, "properties": {"city": "Suining", "country": "China", "population": 2814196.0, "capital": "minor", "iso2": "CN", "iso3": "CHN"}}, {"type": "Feature", "geometry": {"type": "Point", "coordinates": [32.4629, 15.6835]}, "properties": {"city": "Omdurman", "country": "Sudan", "population": 2805396.0, "capital": null, "iso2": "SD", "iso3": "SDN"}}, {"type": "Feature", "geometry": {"type": "Point", "coordinates": [122.1205, 37.5133]}, "properties": {"city": "Weihai", "country": "China", "population": 2804771.0, "capital": "minor", "iso2": "CN", "iso3": "CHN"}}, {"type": "Feature", "geometry": {"type": "Point", "coordinates": [119.527, 35.417]}, "properties": {"city": "Rizhao", "country": "China", "population": 2801013.0, "capital": "minor", "iso2": "CN", "iso3": "CHN"}}, {"type": "Feature", "geometry": {"type": "Point", "coordinates": [112.62, -7.98]}, "properties": {"city": "Malang", "country": "Indonesia", "population": 2795209.0, "capital": null, "iso2": "ID", "iso3": "IDN"}}, {"type": "Feature", "geometry": {"type": "Point", "coordinates": [9.18, 48.7775]}, "properties": {"city": "Stuttgart", "country": "Germany", "population": 2787724.0, "capital": "admin", "iso2": "DE", "iso3": "DEU"}}, {"type": "Feature", "geometry": {"type": "Point", "coordinates": [125.104, 46.589]}, "properties": {"city": "Daqing", "country": "China", "population": 2781562.0, "capital": "minor", "iso2": "CN", "iso3": "CHN"}}, {"type": "Feature", "geometry": {"type": "Point", "coordinates": [12.4828, 41.8931]}, "properties": {"city": "Rome", "country": "Italy", "population": 2748109.0, "capital": "primary", "iso2": "IT", "iso3": "ITA"}}, {"type": "Feature", "geometry": {"type": "Point", "coordinates": [120.2975, 22.615]}, "properties": {"city": "Kaohsiung", "country": "Taiwan", "population": 2737660.0, "capital": "admin", "iso2": "TW", "iso3": "TWN"}}, {"type": "Feature", "geometry": {"type": "Point", "coordinates": [-73.9496, 40.6501]}, "properties": {"city": "Brooklyn", "country": "United States", "population": 2736074.0, "capital": null, "iso2": "US", "iso3": "USA"}}, {"type": "Feature", "geometry": {"type": "Point", "coordinates": [112.9454, 27.8313]}, "properties": {"city": "Xiangtan", "country": "China", "population": 2726181.0, "capital": null, "iso2": "CN", "iso3": "CHN"}}, {"type": "Feature", "geometry": {"type": "Point", "coordinates": [106.748, 31.868]}, "properties": {"city": "Bazhou", "country": "China", "population": 2712894.0, "capital": "minor", "iso2": "CN", "iso3": "CHN"}}, {"type": "Feature", "geometry": {"type": "Point", "coordinates": [114.487, 36.601]}, "properties": {"city": "Handan", "country": "China", "population": 2708015.0, "capital": "minor", "iso2": "CN", "iso3": "CHN"}}, {"type": "Feature", "geometry": {"type": "Point", "coordinates": [153.0281, -27.4678]}, "properties": {"city": "Brisbane", "country": "Australia", "population": 2706966.0, "capital": "admin", "iso2": "AU", "iso3": "AUS"}}, {"type": "Feature", "geometry": {"type": "Point", "coordinates": [121.148, 41.129]}, "properties": {"city": "Jinzhou", "country": "China", "population": 2703853.0, "capital": null, "iso2": "CN", "iso3": "CHN"}}, {"type": "Feature", "geometry": {"type": "Point", "coordinates": [-104.8758, 39.762]}, "properties": {"city": "Denver", "country": "United States", "population": 2691349.0, "capital": "admin", "iso2": "US", "iso3": "USA"}}, {"type": "Feature", "geometry": {"type": "Point", "coordinates": [112.734, 38.416]}, "properties": {"city": "Xinzhou", "country": "China", "population": 2689668.0, "capital": "minor", "iso2": "CN", "iso3": "CHN"}}, {"type": "Feature", "geometry": {"type": "Point", "coordinates": [118.1774, 26.6418]}, "properties": {"city": "Nanping", "country": "China", "population": 2680645.0, "capital": "minor", "iso2": "CN", "iso3": "CHN"}}, {"type": "Feature", "geometry": {"type": "Point", "coordinates": [90.3959, 23.9234]}, "properties": {"city": "G\u0101zipura", "country": "Bangladesh", "population": 2674697.0, "capital": null, "iso2": "BD", "iso3": "BGD"}}, {"type": "Feature", "geometry": {"type": "Point", "coordinates": [115.3756, 22.7872]}, "properties": {"city": "Shanwei", "country": "China", "population": 2672819.0, "capital": "minor", "iso2": "CN", "iso3": "CHN"}}, {"type": "Feature", "geometry": {"type": "Point", "coordinates": [-71.6333, 10.6333]}, "properties": {"city": "Maracaibo", "country": "Venezuela", "population": 2658355.0, "capital": "admin", "iso2": "VE", "iso3": "VEN"}}, {"type": "Feature", "geometry": {"type": "Point", "coordinates": [116.622, 23.658]}, "properties": {"city": "Chaozhou", "country": "China", "population": 2656600.0, "capital": "minor", "iso2": "CN", "iso3": "CHN"}}, {"type": "Feature", "geometry": {"type": "Point", "coordinates": [109.9532, 40.6213]}, "properties": {"city": "Baotou", "country": "China", "population": 2650364.0, "capital": null, "iso2": "CN", "iso3": "CHN"}}, {"type": "Feature", "geometry": {"type": "Point", "coordinates": [117.017, 25.076]}, "properties": {"city": "Longyan", "country": "China", "population": 2640000.0, "capital": "minor", "iso2": "CN", "iso3": "CHN"}}, {"type": "Feature", "geometry": {"type": "Point", "coordinates": [119.162, 36.708]}, "properties": {"city": "Weifang", "country": "China", "population": 2636154.0, "capital": null, "iso2": "CN", "iso3": "CHN"}}, {"type": "Feature", "geometry": {"type": "Point", "coordinates": [119.113, 33.551]}, "properties": {"city": "Huai\u2019an", "country": "China", "population": 2632788.0, "capital": null, "iso2": "CN", "iso3": "CHN"}}, {"type": "Feature", "geometry": {"type": "Point", "coordinates": [118.055, 36.8138]}, "properties": {"city": "Zibo", "country": "China", "population": 2631647.0, "capital": null, "iso2": "CN", "iso3": "CHN"}}, {"type": "Feature", "geometry": {"type": "Point", "coordinates": [75.3555, 11.8689]}, "properties": {"city": "Attadappa", "country": "India", "population": 2615266.0, "capital": null, "iso2": "IN", "iso3": "IND"}}, {"type": "Feature", "geometry": {"type": "Point", "coordinates": [11.575, 48.1375]}, "properties": {"city": "Munich", "country": "Germany", "population": 2606021.0, "capital": "admin", "iso2": "DE", "iso3": "DEU"}}, {"type": "Feature", "geometry": {"type": "Point", "coordinates": [119.298, 26.0865]}, "properties": {"city": "Gulou", "country": "China", "population": 2606000.0, "capital": "minor", "iso2": "CN", "iso3": "CHN"}}, {"type": "Feature", "geometry": {"type": "Point", "coordinates": [-1.9025, 52.48]}, "properties": {"city": "Birmingham", "country": "United Kingdom", "population": 2590363.0, "capital": null, "iso2": "GB", "iso3": "GBR"}}, {"type": "Feature", "geometry": {"type": "Point", "coordinates": [-68.0, 10.1833]}, "properties": {"city": "Valencia", "country": "Venezuela", "population": 2585202.0, "capital": "admin", "iso2": "VE", "iso3": "VEN"}}, {"type": "Feature", "geometry": {"type": "Point", "coordinates": [36.2981, 33.502]}, "properties": {"city": "Damascus", "country": "Syria", "population": 2584771.0, "capital": "primary", "iso2": "SY", "iso3": "SYR"}}, {"type": "Feature", "geometry": {"type": "Point", "coordinates": [91.8325, 22.335]}, "properties": {"city": "Chattogram", "country": "Bangladesh", "population": 2581643.0, "capital": "admin", "iso2": "BD", "iso3": "BGD"}}, {"type": "Feature", "geometry": {"type": "Point", "coordinates": [15.2667, -4.2667]}, "properties": {"city": "Brazzaville", "country": "Congo (Brazzaville)", "population": 2557100.0, "capital": "primary", "iso2": "CG", "iso3": "COG"}}, {"type": "Feature", "geometry": {"type": "Point", "coordinates": [111.983, 21.857]}, "properties": {"city": "Yangjiang", "country": "China", "population": 2555600.0, "capital": "minor", "iso2": "CN", "iso3": "CHN"}}, {"type": "Feature", "geometry": {"type": "Point", "coordinates": [44.2064, 15.3483]}, "properties": {"city": "Sanaa", "country": "Yemen", "population": 2545000.0, "capital": "primary", "iso2": "YE", "iso3": "YEM"}}, {"type": "Feature", "geometry": {"type": "Point", "coordinates": [72.9722, 19.1972]}, "properties": {"city": "Barmh\u0101n Kal\u0101n", "country": "India", "population": 2537000.0, "capital": null, "iso2": "IN", "iso3": "IND"}}, {"type": "Feature", "geometry": {"type": "Point", "coordinates": [-75.5906, 6.2308]}, "properties": {"city": "Medell\u00edn", "country": "Colombia", "population": 2529403.0, "capital": "admin", "iso2": "CO", "iso3": "COL"}}, {"type": "Feature", "geometry": {"type": "Point", "coordinates": [104.592, 35.608]}, "properties": {"city": "Dingxi", "country": "China", "population": 2524097.0, "capital": "minor", "iso2": "CN", "iso3": "CHN"}}, {"type": "Feature", "geometry": {"type": "Point", "coordinates": [120.5833, 30.0511]}, "properties": {"city": "Shaoxing", "country": "China", "population": 2521964.0, "capital": "minor", "iso2": "CN", "iso3": "CHN"}}, {"type": "Feature", "geometry": {"type": "Point", "coordinates": [121.4478, 37.4646]}, "properties": {"city": "Yantai", "country": "China", "population": 2511053.0, "capital": null, "iso2": "CN", "iso3": "CHN"}}, {"type": "Feature", "geometry": {"type": "Point", "coordinates": [114.416, 23.112]}, "properties": {"city": "Huizhou", "country": "China", "population": 2509243.0, "capital": "minor", "iso2": "CN", "iso3": "CHN"}}, {"type": "Feature", "geometry": {"type": "Point", "coordinates": [118.759, 30.939]}, "properties": {"city": "Xuanzhou", "country": "China", "population": 2500063.0, "capital": null, "iso2": "CN", "iso3": "CHN"}}, {"type": "Feature", "geometry": {"type": "Point", "coordinates": [82.569, 25.146]}, "properties": {"city": "Mirz\u0101pur", "country": "India", "population": 2496970.0, "capital": null, "iso2": "IN", "iso3": "IND"}}, {"type": "Feature", "geometry": {"type": "Point", "coordinates": [10.0, 53.55]}, "properties": {"city": "Hamburg", "country": "Germany", "population": 2496600.0, "capital": "admin", "iso2": "DE", "iso3": "DEU"}}, {"type": "Feature", "geometry": {"type": "Point", "coordinates": [121.5625, 25.0375]}, "properties": {"city": "Taipei", "country": "Taiwan", "population": 2494813.0, "capital": "primary", "iso2": "TW", "iso3": "TWN"}}, {"type": "Feature", "geometry": {"type": "Point", "coordinates": [109.029, 32.6854]}, "properties": {"city": "Ankang", "country": "China", "population": 2493436.0, "capital": null, "iso2": "CN", "iso3": "CHN"}}, {"type": "Feature", "geometry": {"type": "Point", "coordinates": [104.779, 29.339]}, "properties": {"city": "Zigong", "country": "China", "population": 2489256.0, "capital": null, "iso2": "CN", "iso3": "CHN"}}, {"type": "Feature", "geometry": {"type": "Point", "coordinates": [117.6389, 26.2634]}, "properties": {"city": "Sanming", "country": "China", "population": 2486450.0, "capital": "minor", "iso2": "CN", "iso3": "CHN"}}, {"type": "Feature", "geometry": {"type": "Point", "coordinates": [-99.6569, 19.2925]}, "properties": {"city": "Toluca", "country": "Mexico", "population": 2476689.0, "capital": "admin", "iso2": "MX", "iso3": "MEX"}}, {"type": "Feature", "geometry": {"type": "Point", "coordinates": [115.039, 30.2011]}, "properties": {"city": "Huangshi", "country": "China", "population": 2469079.0, "capital": "minor", "iso2": "CN", "iso3": "CHN"}}, {"type": "Feature", "geometry": {"type": "Point", "coordinates": [11.5167, 3.8667]}, "properties": {"city": "Yaound\u00e9", "country": "Cameroon", "population": 2440462.0, "capital": "primary", "iso2": "CM", "iso3": "CMR"}}, {"type": "Feature", "geometry": {"type": "Point", "coordinates": [113.5719, 22.2742]}, "properties": {"city": "Zhuhai", "country": "China", "population": 2439585.0, "capital": "minor", "iso2": "CN", "iso3": "CHN"}}, {"type": "Feature", "geometry": {"type": "Point", "coordinates": [120.837, 40.711]}, "properties": {"city": "Huludao", "country": "China", "population": 2434194.0, "capital": "minor", "iso2": "CN", "iso3": "CHN"}}, {"type": "Feature", "geometry": {"type": "Point", "coordinates": [99.161, 25.112]}, "properties": {"city": "Baoshan", "country": "China", "population": 2431211.0, "capital": null, "iso2": "CN", "iso3": "CHN"}}, {"type": "Feature", "geometry": {"type": "Point", "coordinates": [39.8261, 21.4225]}, "properties": {"city": "Mecca", "country": "Saudi Arabia", "population": 2427924.0, "capital": "admin", "iso2": "SA", "iso3": "SAU"}}, {"type": "Feature", "geometry": {"type": "Point", "coordinates": [-123.1, 49.25]}, "properties": {"city": "Vancouver", "country": "Canada", "population": 2426160.0, "capital": null, "iso2": "CA", "iso3": "CAN"}}, {"type": "Feature", "geometry": {"type": "Point", "coordinates": [120.828, 40.7523]}, "properties": {"city": "Lianshan", "country": "China", "population": 2426000.0, "capital": "minor", "iso2": "CN", "iso3": "CHN"}}, {"type": "Feature", "geometry": {"type": "Point", "coordinates": [35.5058, 33.8981]}, "properties": {"city": "Beirut", "country": "Lebanon", "population": 2421354.0, "capital": "primary", "iso2": "LB", "iso3": "LBN"}}, {"type": "Feature", "geometry": {"type": "Point", "coordinates": [-38.4928, -12.9831]}, "properties": {"city": "Salvador", "country": "Brazil", "population": 2417678.0, "capital": "admin", "iso2": "BR", "iso3": "BRA"}}, {"type": "Feature", "geometry": {"type": "Point", "coordinates": [26.1039, 44.4325]}, "properties": {"city": "Bucharest", "country": "Romania", "population": 2412530.0, "capital": "primary", "iso2": "RO", "iso3": "ROU"}}, {"type": "Feature", "geometry": {"type": "Point", "coordinates": [104.9603, 33.3702]}, "properties": {"city": "Longba", "country": "China", "population": 2407272.0, "capital": null, "iso2": "CN", "iso3": "CHN"}}, {"type": "Feature", "geometry": {"type": "Point", "coordinates": [79.0806, 21.1497]}, "properties": {"city": "N\u0101gpur", "country": "India", "population": 2405665.0, "capital": null, "iso2": "IN", "iso3": "IND"}}, {"type": "Feature", "geometry": {"type": "Point", "coordinates": [-73.7976, 40.7498]}, "properties": {"city": "Queens", "country": "United States", "population": 2405464.0, "capital": null, "iso2": "US", "iso3": "USA"}}, {"type": "Feature", "geometry": {"type": "Point", "coordinates": [123.726, 42.2237]}, "properties": {"city": "Tieling", "country": "China", "population": 2388294.0, "capital": null, "iso2": "CN", "iso3": "CHN"}}, {"type": "Feature", "geometry": {"type": "Point", "coordinates": [112.0445, 22.9152]}, "properties": {"city": "Yunfu", "country": "China", "population": 2383350.0, "capital": "minor", "iso2": "CN", "iso3": "CHN"}}, {"type": "Feature", "geometry": {"type": "Point", "coordinates": [107.0, -6.2333]}, "properties": {"city": "Bekasi", "country": "Indonesia", "population": 2381053.0, "capital": null, "iso2": "ID", "iso3": "IDN"}}, {"type": "Feature", "geometry": {"type": "Point", "coordinates": [128.6017, 35.8717]}, "properties": {"city": "Daegu", "country": "Korea, South", "population": 2376044.0, "capital": "admin", "iso2": "KR", "iso3": "KOR"}}, {"type": "Feature", "geometry": {"type": "Point", "coordinates": [77.42, 28.67]}, "properties": {"city": "Gh\u0101zi\u0101b\u0101d", "country": "India", "population": 2375820.0, "capital": null, "iso2": "IN", "iso3": "IND"}}, {"type": "Feature", "geometry": {"type": "Point", "coordinates": [112.4539, 34.6197]}, "properties": {"city": "Luoyang", "country": "China", "population": 2372571.0, "capital": "minor", "iso2": "CN", "iso3": "CHN"}}, {"type": "Feature", "geometry": {"type": "Point", "coordinates": [114.0166, 33.5804]}, "properties": {"city": "Luohe", "country": "China", "population": 2367490.0, "capital": "minor", "iso2": "CN", "iso3": "CHN"}}, {"type": "Feature", "geometry": {"type": "Point", "coordinates": [3.0872, 36.7325]}, "properties": {"city": "Algiers", "country": "Algeria", "population": 2364230.0, "capital": "primary", "iso2": "DZ", "iso3": "DZA"}}, {"type": "Feature", "geometry": {"type": "Point", "coordinates": [105.9476, 26.2531]}, "properties": {"city": "Anshun", "country": "China", "population": 2353100.0, "capital": null, "iso2": "CN", "iso3": "CHN"}}, {"type": "Feature", "geometry": {"type": "Point", "coordinates": [117.0194, 32.6314]}, "properties": {"city": "Huainan", "country": "China", "population": 2333896.0, "capital": null, "iso2": "CN", "iso3": "CHN"}}, {"type": "Feature", "geometry": {"type": "Point", "coordinates": [106.8225, -6.394]}, "properties": {"city": "Depok", "country": "Indonesia", "population": 2330333.0, "capital": null, "iso2": "ID", "iso3": "IDN"}}, {"type": "Feature", "geometry": {"type": "Point", "coordinates": [32.4833, 37.8667]}, "properties": {"city": "Konya", "country": "Turkey", "population": 2320241.0, "capital": "admin", "iso2": "TR", "iso3": "TUR"}}, {"type": "Feature", "geometry": {"type": "Point", "coordinates": [106.6838, 20.8651]}, "properties": {"city": "Haiphong", "country": "Vietnam", "population": 2310280.0, "capital": "admin", "iso2": "VN", "iso3": "VNM"}}, {"type": "Feature", "geometry": {"type": "Point", "coordinates": [104.627, 30.129]}, "properties": {"city": "Yanjiang", "country": "China", "population": 2308631.0, "capital": "minor", "iso2": "CN", "iso3": "CHN"}}, {"type": "Feature", "geometry": {"type": "Point", "coordinates": [105.844, 32.436]}, "properties": {"city": "Guangyuan", "country": "China", "population": 2305657.0, "capital": null, "iso2": "CN", "iso3": "CHN"}}, {"type": "Feature", "geometry": {"type": "Point", "coordinates": [49.8352, 40.3667]}, "properties": {"city": "Baku", "country": "Azerbaijan", "population": 2300500.0, "capital": "primary", "iso2": "AZ", "iso3": "AZE"}}, {"type": "Feature", "geometry": {"type": "Point", "coordinates": [122.219, 40.625]}, "properties": {"city": "Yingkou", "country": "China", "population": 2296540.0, "capital": "minor", "iso2": "CN", "iso3": "CHN"}}, {"type": "Feature", "geometry": {"type": "Point", "coordinates": [129.6329, 44.5514]}, "properties": {"city": "Mudanjiang", "country": "China", "population": 2290208.0, "capital": "minor", "iso2": "CN", "iso3": "CHN"}}, {"type": "Feature", "geometry": {"type": "Point", "coordinates": [-117.3949, 33.9381]}, "properties": {"city": "Riverside", "country": "United States", "population": 2288508.0, "capital": null, "iso2": "US", "iso3": "USA"}}, {"type": "Feature", "geometry": {"type": "Point", "coordinates": [130.4017, 33.59]}, "properties": {"city": "Fukuoka", "country": "Japan", "population": 2286000.0, "capital": "admin", "iso2": "JP", "iso3": "JPN"}}, {"type": "Feature", "geometry": {"type": "Point", "coordinates": [120.894, 31.981]}, "properties": {"city": "Nantong", "country": "China", "population": 2261382.0, "capital": "minor", "iso2": "CN", "iso3": "CHN"}}, {"type": "Feature", "geometry": {"type": "Point", "coordinates": [100.089, 23.884]}, "properties": {"city": "Lincang", "country": "China", "population": 2257991.0, "capital": null, "iso2": "CN", "iso3": "CHN"}}, {"type": "Feature", "geometry": {"type": "Point", "coordinates": [-115.2654, 36.2333]}, "properties": {"city": "Las Vegas", "country": "United States", "population": 2256509.0, "capital": null, "iso2": "US", "iso3": "USA"}}, {"type": "Feature", "geometry": {"type": "Point", "coordinates": [110.3488, 20.0186]}, "properties": {"city": "Haikou", "country": "China", "population": 2250000.0, "capital": "admin", "iso2": "CN", "iso3": "CHN"}}, {"type": "Feature", "geometry": {"type": "Point", "coordinates": [102.527, 24.347]}, "properties": {"city": "Yuxi", "country": "China", "population": 2249502.0, "capital": "minor", "iso2": "CN", "iso3": "CHN"}}, {"type": "Feature", "geometry": {"type": "Point", "coordinates": [106.6403, -6.1703]}, "properties": {"city": "Tangerang", "country": "Indonesia", "population": 2237006.0, "capital": null, "iso2": "ID", "iso3": "IDN"}}, {"type": "Feature", "geometry": {"type": "Point", "coordinates": [86.605, 26.126]}, "properties": {"city": "Supaul", "country": "India", "population": 2229076.0, "capital": null, "iso2": "IN", "iso3": "IND"}}, {"type": "Feature", "geometry": {"type": "Point", "coordinates": [76.915, 43.24]}, "properties": {"city": "Almaty", "country": "Kazakhstan", "population": 2228675.0, "capital": "admin", "iso2": "KZ", "iso3": "KAZ"}}, {"type": "Feature", "geometry": {"type": "Point", "coordinates": [16.3725, 48.2083]}, "properties": {"city": "Vienna", "country": "Austria", "population": 2223236.0, "capital": "primary", "iso2": "AT", "iso3": "AUT"}}, {"type": "Feature", "geometry": {"type": "Point", "coordinates": [51.6703, 32.6653]}, "properties": {"city": "E\u015ffah\u0101n", "country": "Iran", "population": 2219343.0, "capital": "admin", "iso2": "IR", "iso3": "IRN"}}, {"type": "Feature", "geometry": {"type": "Point", "coordinates": [101.7804, 36.6224]}, "properties": {"city": "Xining", "country": "China", "population": 2208708.0, "capital": "admin", "iso2": "CN", "iso3": "CHN"}}, {"type": "Feature", "geometry": {"type": "Point", "coordinates": [112.852, 35.491]}, "properties": {"city": "Jincheng", "country": "China", "population": 2194545.0, "capital": "minor", "iso2": "CN", "iso3": "CHN"}}, {"type": "Feature", "geometry": {"type": "Point", "coordinates": [-76.6144, 39.3051]}, "properties": {"city": "Baltimore", "country": "United States", "population": 2189589.0, "capital": null, "iso2": "US", "iso3": "USA"}}, {"type": "Feature", "geometry": {"type": "Point", "coordinates": [124.3833, 40.1167]}, "properties": {"city": "Dandong", "country": "China", "population": 2188436.0, "capital": null, "iso2": "CN", "iso3": "CHN"}}, {"type": "Feature", "geometry": {"type": "Point", "coordinates": [109.494, 36.65]}, "properties": {"city": "Yan\u2019an", "country": "China", "population": 2187009.0, "capital": null, "iso2": "CN", "iso3": "CHN"}}, {"type": "Feature", "geometry": {"type": "Point", "coordinates": [107.6436, 35.7091]}, "properties": {"city": "Qinbaling", "country": "China", "population": 2179716.0, "capital": null, "iso2": "CN", "iso3": "CHN"}}, {"type": "Feature", "geometry": {"type": "Point", "coordinates": [106.1281, 30.7824]}, "properties": {"city": "Gaoping", "country": "China", "population": 2174000.0, "capital": "minor", "iso2": "CN", "iso3": "CHN"}}, {"type": "Feature", "geometry": {"type": "Point", "coordinates": [7.0678, 6.2069]}, "properties": {"city": "Awka", "country": "Nigeria", "population": 2171900.0, "capital": "admin", "iso2": "NG", "iso3": "NGA"}}, {"type": "Feature", "geometry": {"type": "Point", "coordinates": [121.4208, 28.6557]}, "properties": {"city": "Taizhou", "country": "China", "population": 2162461.0, "capital": "minor", "iso2": "CN", "iso3": "CHN"}}, {"type": "Feature", "geometry": {"type": "Point", "coordinates": [118.507, 31.669]}, "properties": {"city": "Ma\u2019anshan", "country": "China", "population": 2159930.0, "capital": "minor", "iso2": "CN", "iso3": "CHN"}}, {"type": "Feature", "geometry": {"type": "Point", "coordinates": [130.319, 46.8]}, "properties": {"city": "Jiamusi", "country": "China", "population": 2156505.0, "capital": "minor", "iso2": "CN", "iso3": "CHN"}}, {"type": "Feature", "geometry": {"type": "Point", "coordinates": [115.8597, -31.9558]}, "properties": {"city": "Perth", "country": "Australia", "population": 2141834.0, "capital": "admin", "iso2": "AU", "iso3": "AUS"}}, {"type": "Feature", "geometry": {"type": "Point", "coordinates": [37.3792, 37.0628]}, "properties": {"city": "Gaziantep", "country": "Turkey", "population": 2130432.0, "capital": "admin", "iso2": "TR", "iso3": "TUR"}}, {"type": "Feature", "geometry": {"type": "Point", "coordinates": [104.921, 11.5696]}, "properties": {"city": "Phnom Penh", "country": "Cambodia", "population": 2129371.0, "capital": "primary", "iso2": "KH", "iso3": "KHM"}}, {"type": "Feature", "geometry": {"type": "Point", "coordinates": [-90.2451, 38.6359]}, "properties": {"city": "St. Louis", "country": "United States", "population": 2127843.0, "capital": null, "iso2": "US", "iso3": "USA"}}, {"type": "Feature", "geometry": {"type": "Point", "coordinates": [45.3419, 2.0392]}, "properties": {"city": "Mogadishu", "country": "Somalia", "population": 2120000.0, "capital": "primary", "iso2": "SO", "iso3": "SOM"}}, {"type": "Feature", "geometry": {"type": "Point", "coordinates": [119.923, 28.468]}, "properties": {"city": "Lishui", "country": "China", "population": 2116957.0, "capital": "minor", "iso2": "CN", "iso3": "CHN"}}, {"type": "Feature", "geometry": {"type": "Point", "coordinates": [114.1833, 22.3167]}, "properties": {"city": "Kowloon", "country": "Hong Kong", "population": 2108419.0, "capital": null, "iso2": "HK", "iso3": "HKG"}}, {"type": "Feature", "geometry": {"type": "Point", "coordinates": [-64.1833, -31.4167]}, "properties": {"city": "C\u00f3rdoba", "country": "Argentina", "population": 2106734.0, "capital": "admin", "iso2": "AR", "iso3": "ARG"}}, {"type": "Feature", "geometry": {"type": "Point", "coordinates": [122.0761, 6.9042]}, "properties": {"city": "Zamboanga City", "country": "Philippines", "population": 2100000.0, "capital": "admin", "iso2": "PH", "iso3": "PHL"}}, {"type": "Feature", "geometry": {"type": "Point", "coordinates": [73.0333, 33.6]}, "properties": {"city": "Rawalpindi", "country": "Pakistan", "population": 2098231.0, "capital": "minor", "iso2": "PK", "iso3": "PAK"}}, {"type": "Feature", "geometry": {"type": "Point", "coordinates": [-82.3589, 23.1367]}, "properties": {"city": "Havana", "country": "Cuba", "population": 2089532.0, "capital": "primary", "iso2": "CU", "iso3": "CUB"}}, {"type": "Feature", "geometry": {"type": "Point", "coordinates": [107.365, 22.377]}, "properties": {"city": "Chongzuo", "country": "China", "population": 2088692.0, "capital": "minor", "iso2": "CN", "iso3": "CHN"}}, {"type": "Feature", "geometry": {"type": "Point", "coordinates": [-122.65, 45.5371]}, "properties": {"city": "Portland", "country": "United States", "population": 2084045.0, "capital": null, "iso2": "US", "iso3": "USA"}}, {"type": "Feature", "geometry": {"type": "Point", "coordinates": [109.2212, 23.7501]}, "properties": {"city": "Laibin", "country": "China", "population": 2074611.0, "capital": "minor", "iso2": "CN", "iso3": "CHN"}}, {"type": "Feature", "geometry": {"type": "Point", "coordinates": [-98.5238, 29.4632]}, "properties": {"city": "San Antonio", "country": "United States", "population": 2069843.0, "capital": null, "iso2": "US", "iso3": "USA"}}, {"type": "Feature", "geometry": {"type": "Point", "coordinates": [73.2, 22.3]}, "properties": {"city": "Vadodara", "country": "India", "population": 2065771.0, "capital": null, "iso2": "IN", "iso3": "IND"}}, {"type": "Feature", "geometry": {"type": "Point", "coordinates": [118.5517, 24.7816]}, "properties": {"city": "Qingyang", "country": "China", "population": 2061600.0, "capital": "minor", "iso2": "CN", "iso3": "CHN"}}, {"type": "Feature", "geometry": {"type": "Point", "coordinates": [70.7833, 22.3]}, "properties": {"city": "R\u0101jkot", "country": "India", "population": 2043000.0, "capital": null, "iso2": "IN", "iso3": "IND"}}, {"type": "Feature", "geometry": {"type": "Point", "coordinates": [109.9186, 33.8734]}, "properties": {"city": "Shangzhou", "country": "China", "population": 2041231.0, "capital": null, "iso2": "CN", "iso3": "CHN"}}, {"type": "Feature", "geometry": {"type": "Point", "coordinates": [83.2978, 17.7042]}, "properties": {"city": "Vish\u0101khapatnam", "country": "India", "population": 2035922.0, "capital": null, "iso2": "IN", "iso3": "IND"}}, {"type": "Feature", "geometry": {"type": "Point", "coordinates": [118.6746, 37.434]}, "properties": {"city": "Shengli", "country": "China", "population": 2035338.0, "capital": "minor", "iso2": "CN", "iso3": "CHN"}}, {"type": "Feature", "geometry": {"type": "Point", "coordinates": [111.2004, 34.7732]}, "properties": {"city": "Sanmenxia", "country": "China", "population": 2034872.0, "capital": "minor", "iso2": "CN", "iso3": "CHN"}}, {"type": "Feature", "geometry": {"type": "Point", "coordinates": [21.0111, 52.23]}, "properties": {"city": "Warsaw", "country": "Poland", "population": 2028000.0, "capital": "primary", "iso2": "PL", "iso3": "POL"}}, {"type": "Feature", "geometry": {"type": "Point", "coordinates": [74.19, 32.1567]}, "properties": {"city": "Gujranwala", "country": "Pakistan", "population": 2027001.0, "capital": "minor", "iso2": "PK", "iso3": "PAK"}}, {"type": "Feature", "geometry": {"type": "Point", "coordinates": [111.5672, 24.4042]}, "properties": {"city": "Hezhou", "country": "China", "population": 2007858.0, "capital": "minor", "iso2": "CN", "iso3": "CHN"}}, {"type": "Feature", "geometry": {"type": "Point", "coordinates": [37.1681, 36.2319]}, "properties": {"city": "Aleppo", "country": "Syria", "population": 2003671.0, "capital": "admin", "iso2": "SY", "iso3": "SYR"}}, {"type": "Feature", "geometry": {"type": "Point", "coordinates": [-117.0333, 32.525]}, "properties": {"city": "Tijuana", "country": "Mexico", "population": 2002000.0, "capital": "minor", "iso2": "MX", "iso3": "MEX"}}, {"type": "Feature", "geometry": {"type": "Point", "coordinates": [116.166, 23.298]}, "properties": {"city": "Puning", "country": "China", "population": 1998619.0, "capital": null, "iso2": "CN", "iso3": "CHN"}}, {"type": "Feature", "geometry": {"type": "Point", "coordinates": [75.8472, 22.7167]}, "properties": {"city": "Indore", "country": "India", "population": 1994397.0, "capital": null, "iso2": "IN", "iso3": "IND"}}, {"type": "Feature", "geometry": {"type": "Point", "coordinates": [27.5586, 53.9006]}, "properties": {"city": "Minsk", "country": "Belarus", "population": 1992862.0, "capital": "primary", "iso2": "BY", "iso3": "BLR"}}, {"type": "Feature", "geometry": {"type": "Point", "coordinates": [50.9675, 35.8292]}, "properties": {"city": "Karaj", "country": "Iran", "population": 1973470.0, "capital": "admin", "iso2": "IR", "iso3": "IRN"}}, {"type": "Feature", "geometry": {"type": "Point", "coordinates": [22.4488, -5.897]}, "properties": {"city": "Kananga", "country": "Congo (Kinshasa)", "population": 1971704.0, "capital": "admin", "iso2": "CD", "iso3": "COD"}}, {"type": "Feature", "geometry": {"type": "Point", "coordinates": [116.798, 33.956]}, "properties": {"city": "Huaibei", "country": "China", "population": 1970265.0, "capital": null, "iso2": "CN", "iso3": "CHN"}}, {"type": "Feature", "geometry": {"type": "Point", "coordinates": [71.5675, 34.0144]}, "properties": {"city": "Peshawar", "country": "Pakistan", "population": 1970042.0, "capital": "admin", "iso2": "PK", "iso3": "PAK"}}, {"type": "Feature", "geometry": {"type": "Point", "coordinates": [-121.4685, 38.5677]}, "properties": {"city": "Sacramento", "country": "United States", "population": 1962998.0, "capital": "admin", "iso2": "US", "iso3": "USA"}}, {"type": "Feature", "geometry": {"type": "Point", "coordinates": [141.3544, 43.0619]}, "properties": {"city": "Sapporo", "country": "Japan", "population": 1959313.0, "capital": "admin", "iso2": "JP", "iso3": "JPN"}}, {"type": "Feature", "geometry": {"type": "Point", "coordinates": [5.0911, 51.5572]}, "properties": {"city": "Tilburg", "country": "Netherlands", "population": 1944588.0, "capital": "minor", "iso2": "NL", "iso3": "NLD"}}, {"type": "Feature", "geometry": {"type": "Point", "coordinates": [-97.7522, 30.3005]}, "properties": {"city": "Austin", "country": "United States", "population": 1915031.0, "capital": "admin", "iso2": "US", "iso3": "USA"}}, {"type": "Feature", "geometry": {"type": "Point", "coordinates": [-81.337, 28.4773]}, "properties": {"city": "Orlando", "country": "United States", "population": 1913597.0, "capital": null, "iso2": "US", "iso3": "USA"}}, {"type": "Feature", "geometry": {"type": "Point", "coordinates": [125.6, 7.07]}, "properties": {"city": "Davao", "country": "Philippines", "population": 1910167.0, "capital": "admin", "iso2": "PH", "iso3": "PHL"}}, {"type": "Feature", "geometry": {"type": "Point", "coordinates": [121.2333, 31.0058]}, "properties": {"city": "Songjiang", "country": "China", "population": 1909713.0, "capital": "minor", "iso2": "CN", "iso3": "CHN"}}, {"type": "Feature", "geometry": {"type": "Point", "coordinates": [106.225, 38.485]}, "properties": {"city": "Yinchuan", "country": "China", "population": 1901793.0, "capital": "admin", "iso2": "CN", "iso3": "CHN"}}, {"type": "Feature", "geometry": {"type": "Point", "coordinates": [116.38, 39.41]}, "properties": {"city": "Abhepur", "country": "India", "population": 1895686.0, "capital": null, "iso2": "IN", "iso3": "IND"}}, {"type": "Feature", "geometry": {"type": "Point", "coordinates": [72.9722, 19.1972]}, "properties": {"city": "Th\u0101ne", "country": "India", "population": 1886941.0, "capital": null, "iso2": "IN", "iso3": "IND"}}, {"type": "Feature", "geometry": {"type": "Point", "coordinates": [71.4697, 30.1978]}, "properties": {"city": "Multan", "country": "Pakistan", "population": 1871843.0, "capital": "minor", "iso2": "PK", "iso3": "PAK"}}, {"type": "Feature", "geometry": {"type": "Point", "coordinates": [7.0336, 4.8242]}, "properties": {"city": "Port Harcourt", "country": "Nigeria", "population": 1865000.0, "capital": "admin", "iso2": "NG", "iso3": "NGA"}}, {"type": "Feature", "geometry": {"type": "Point", "coordinates": [123.957, 41.881]}, "properties": {"city": "Fushun", "country": "China", "population": 1861372.0, "capital": null, "iso2": "CN", "iso3": "CHN"}}, {"type": "Feature", "geometry": {"type": "Point", "coordinates": [120.1833, 22.9833]}, "properties": {"city": "Tainan", "country": "Taiwan", "population": 1856642.0, "capital": "admin", "iso2": "TW", "iso3": "TWN"}}, {"type": "Feature", "geometry": {"type": "Point", "coordinates": [106.6649, 35.5424]}, "properties": {"city": "Pingliang", "country": "China", "population": 1848607.0, "capital": "minor", "iso2": "CN", "iso3": "CHN"}}, {"type": "Feature", "geometry": {"type": "Point", "coordinates": [124.3506, 43.1668]}, "properties": {"city": "Siping", "country": "China", "population": 1814733.0, "capital": "minor", "iso2": "CN", "iso3": "CHN"}}, {"type": "Feature", "geometry": {"type": "Point", "coordinates": [-66.061, 18.3985]}, "properties": {"city": "San Juan", "country": "Puerto Rico", "population": 1809800.0, "capital": "primary", "iso2": "PR", "iso3": "PRI"}}, {"type": "Feature", "geometry": {"type": "Point", "coordinates": [113.887, 27.659]}, "properties": {"city": "Pingxiang", "country": "China", "population": 1804805.0, "capital": "minor", "iso2": "CN", "iso3": "CHN"}}, {"type": "Feature", "geometry": {"type": "Point", "coordinates": [77.4126, 23.2599]}, "properties": {"city": "Bhop\u0101l", "country": "India", "population": 1798218.0, "capital": "admin", "iso2": "IN", "iso3": "IND"}}, {"type": "Feature", "geometry": {"type": "Point", "coordinates": [43.1167, 36.3667]}, "properties": {"city": "Mosul", "country": "Iraq", "population": 1792000.0, "capital": "admin", "iso2": "IQ", "iso3": "IRQ"}}, {"type": "Feature", "geometry": {"type": "Point", "coordinates": [40.24, 37.91]}, "properties": {"city": "Diyarbak\u0131r", "country": "Turkey", "population": 1791373.0, "capital": "admin", "iso2": "TR", "iso3": "TUR"}}, {"type": "Feature", "geometry": {"type": "Point", "coordinates": [27.4794, -11.6647]}, "properties": {"city": "Lubumbashi", "country": "Congo (Kinshasa)", "population": 1786397.0, "capital": "admin", "iso2": "CD", "iso3": "COD"}}, {"type": "Feature", "geometry": {"type": "Point", "coordinates": [5.6222, 6.3333]}, "properties": {"city": "Benin City", "country": "Nigeria", "population": 1780000.0, "capital": "admin", "iso2": "NG", "iso3": "NGA"}}, {"type": "Feature", "geometry": {"type": "Point", "coordinates": [-49.2719, -25.4297]}, "properties": {"city": "Curitiba", "country": "Brazil", "population": 1773718.0, "capital": "admin", "iso2": "BR", "iso3": "BRA"}}, {"type": "Feature", "geometry": {"type": "Point", "coordinates": [-121.848, 37.3012]}, "properties": {"city": "San Jose", "country": "United States", "population": 1771563.0, "capital": null, "iso2": "US", "iso3": "USA"}}, {"type": "Feature", "geometry": {"type": "Point", "coordinates": [118.7734, 34.1299]}, "properties": {"city": "Shuyangzha", "country": "China", "population": 1770000.0, "capital": null, "iso2": "CN", "iso3": "CHN"}}, {"type": "Feature", "geometry": {"type": "Point", "coordinates": [35.3213, 37.0]}, "properties": {"city": "Adana", "country": "Turkey", "population": 1765981.0, "capital": "admin", "iso2": "TR", "iso3": "TUR"}}, {"type": "Feature", "geometry": {"type": "Point", "coordinates": [-78.5125, -0.22]}, "properties": {"city": "Quito", "country": "Ecuador", "population": 1763275.0, "capital": "primary", "iso2": "EC", "iso3": "ECU"}}, {"type": "Feature", "geometry": {"type": "Point", "coordinates": [78.02, 27.18]}, "properties": {"city": "\u0100gra", "country": "India", "population": 1760285.0, "capital": null, "iso2": "IN", "iso3": "IND"}}, {"type": "Feature", "geometry": {"type": "Point", "coordinates": [77.9833, 8.9]}, "properties": {"city": "Peyanvilai", "country": "India", "population": 1750176.0, "capital": null, "iso2": "IN", "iso3": "IND"}}, {"type": "Feature", "geometry": {"type": "Point", "coordinates": [28.2833, -15.4167]}, "properties": {"city": "Lusaka", "country": "Zambia", "population": 1747152.0, "capital": "primary", "iso2": "ZM", "iso3": "ZMB"}}, {"type": "Feature", "geometry": {"type": "Point", "coordinates": [-86.1458, 39.7771]}, "properties": {"city": "Indianapolis", "country": "United States", "population": 1740984.0, "capital": "admin", "iso2": "US", "iso3": "USA"}}, {"type": "Feature", "geometry": {"type": "Point", "coordinates": [68.3683, 25.3792]}, "properties": {"city": "Hyderabad City", "country": "Pakistan", "population": 1732693.0, "capital": "minor", "iso2": "PK", "iso3": "PAK"}}, {"type": "Feature", "geometry": {"type": "Point", "coordinates": [73.8037, 18.6186]}, "properties": {"city": "Pimpri-Chinchwad", "country": "India", "population": 1729320.0, "capital": null, "iso2": "IN", "iso3": "IND"}}, {"type": "Feature", "geometry": {"type": "Point", "coordinates": [-67.5961, 10.2469]}, "properties": {"city": "Maracay", "country": "Venezuela", "population": 1723236.0, "capital": "admin", "iso2": "VE", "iso3": "VEN"}}, {"type": "Feature", "geometry": {"type": "Point", "coordinates": [58.5911, 23.614]}, "properties": {"city": "Masqa\u0163", "country": "Oman", "population": 1720000.0, "capital": null, "iso2": "OM", "iso3": "OMN"}}, {"type": "Feature", "geometry": {"type": "Point", "coordinates": [-56.1842, -34.9056]},